station,name,years_since_daily,days_since_daily,days_since_val,years_since_monthly,years_since_alltime,all_time_days,all_time_date,all_time_val,true_latitude,true_longitude,state_abbr,days_since_daily_date,latitude,longitude,last_data_point
55Nthr 9,Atlantic City Marina Area,0,31,63,15,106,37841,1918-08-07,104,39.36287000000004,-74.42636999999996,NJ,2022-02-12,2.5341174897389114,16.844683491174294,20220315
8D3thr 9,Sisseton Area,0,81,56,10,90,32066,1934-05-30,113,45.66019000000006,-97.04127999999997,SD,2021-12-24,6.988043501232436,-0.2643335487767883,20220315
CRPthr 9,Corpus Christi Area,0,73,92,0,22,7861,2000-09-05,109,27.796410000000037,-97.40373999999997,TX,2022-01-01,-10.888354782868488,-0.7830786332316053,20220315
CRWthr 9,Charleston Area,0,89,72,4,93,33127,1931-07-04,108,38.35016000000007,-81.63894999999997,WV,2021-12-16,0.48628530131690856,11.574456844696355,20220315
INDthr 9,Indianapolis Area,0,94,66,2,87,31290,1936-07-14,106,39.76691000000005,-86.15011999999996,IN,2021-12-11,1.4638307914878923,7.951717897078753,20220315
INLthr 9,International Falls Area,0,168,84,1,101,36031,1923-07-22,103,48.60260000000005,-93.40364999999997,MN,2021-09-28,9.902477386857475,2.198996741321037,20220315
AATthr 9,Alturas Area,0,32,66,0,20,7188,2002-07-10,107,41.49432000000007,-120.54260999999997,CA,2022-02-11,5.153068038356705,-17.575287649070685,20220315
ABEthr 9,Allentown Area,0,89,61,2,57,20344,1966-07-03,105,40.60263000000003,-75.47026999999997,PA,2021-12-16,3.578997807189293,15.796589872103235,20220315
ORDthr 9,Chicago Area,0,89,66,34,89,32011,1934-07-24,105,41.884250000000065,-87.63244999999995,IL,2021-12-16,3.480728167178659,6.640271682233052,20220315
ORFthr 9,Norfolk Area,0,73,76,6,11,4252,2010-07-24,105,36.84686000000005,-76.28513999999996,VA,2022-01-01,-0.2578937550308057,15.9777991156265,20220315
CSGthr 9,Columbus Area,0,73,82,2,9,3545,2012-06-30,106,32.46288000000004,-84.98756999999995,GA,2022-01-01,-5.747506791614142,9.683498376242373,20220315
CUSM6thr 9,Columbus Area,0,75,81,2,99,35255,1925-09-05,110,33.495070000000055,-88.42854999999997,MS,2021-12-30,-4.997258294963132,6.727494706011287,20220315
TYSthr 9,Knoxville Area,0,73,77,0,9,3545,2012-06-30,105,35.960680000000025,-83.92102999999997,TN,2022-01-01,-2.1520372539043744,10.12508866047554,20220315
UILthr 9,Quillayute Area,0,47,58,3,41,14828,1981-08-09,99,47.94313000000005,-124.54242999999997,WA,2022-01-27,12.057647621632489,-18.522592595914308,20220315
INWthr 9,Winslow Area,0,129,80,0,0,248,2021-07-10,110,35.02426000000003,-110.69623999999999,AZ,2021-11-06,-2.7902671320259107,-11.421326489182622,20220315
IPLthr 9,El Centro Area,0,223,119,0,4,1729,2017-06-20,122,32.79616000000004,-115.56996999999996,CA,2021-08-04,-4.275184316721509,-15.77290445774636,20220315
ABIthr 9,Abilene Area,0,78,81,0,80,28714,1943-08-03,111,32.44917000000004,-99.74141999999995,TX,2021-12-27,-6.2315719627832875,-2.675379941208558,20220315
ABQthr 9,Albuquerque Area,0,102,65,28,28,10124,1994-06-26,107,35.08423000000005,-106.64904999999999,NM,2021-12-03,-3.1664736918158365,-8.157875510543986,20220315
ORHthr 9,Worcester Area,0,88,60,4,113,40432,1911-07-04,102,42.26341000000008,-71.80218999999994,MA,2021-12-17,5.834648513519116,18.05976567437649,20220315
OSPA3thr 9,Oracle Area,0,127,83,0,0,272,2021-06-16,110,32.61047000000008,-110.76717999999994,AZ,2021-11-08,-5.177528921284283,-11.85449063857143,20220315
CVGthr 9,Cincinnati Area,0,80,69,2,89,32014,1934-07-21,108,39.162000000000035,-84.45688999999999,OH,2021-12-25,1.0026260071326643,9.307039778867956,20220315
CXMthr 9,Charleston Downtown Area,0,79,77,2,37,13435,1985-06-02,104,32.781150000000025,-79.93159999999995,SC,2021-12-26,-4.833598159634986,13.828575909793662,20220315
UINthr 9,Quincy Area,0,81,69,0,87,31289,1936-07-15,114,39.93559000000005,-91.39582999999999,IL,2021-12-24,1.3304663293529806,3.9605347765317247,20220315
UKIthr 9,Ukiah Area,0,30,79,0,68,24300,1955-09-03,115,39.15093000000007,-123.2079,CA,2022-02-13,3.422741802145371,-20.15078069423152,20220315
OSWN6thr 9,Oswego Area,0,88,64,2,20,7153,2002-08-14,97,43.45646000000005,-76.51118999999994,NY,2021-12-17,6.2188657178553495,14.445252601089361,20220315
OTZthr 9,Kotzebue Area,0,86,35,0,8,3191,2013-06-19,85,66.89675000000005,-162.58589999999998,AK,2021-12-19,-8.470344972011281,-18.406363370990857,20220315
IPTthr 9,Williamsport Area,0,89,65,5,87,31295,1936-07-09,106,41.24094000000008,-77.00140999999996,PA,2021-12-16,3.9710605167149877,14.541131821616949,20220315
ISNthr 9,Williston Area,0,160,92,10,87,31299,1936-07-05,110,48.14704000000006,-103.62186999999994,ND,2021-10-06,9.637185553568214,-4.661608411457708,20220315
CYSthr 9,Cheyenne Area,0,101,65,0,69,24737,1954-06-23,100,41.13481000000007,-104.82153999999997,WY,2021-12-04,2.7601061864964858,-6.116966010013002,20220315
DABthr 9,Daytona Beach Area,0,72,82,6,79,28388,1944-06-24,102,29.20357000000007,-81.03939999999994,FL,2022-01-02,-8.502103618522508,13.477531736180932,20220315
ABRthr 9,Aberdeen Area,0,104,65,10,87,31298,1936-07-06,115,45.45909000000006,-98.48690999999997,SD,2021-12-01,6.807125110670494,-1.280229687558387,20220315
ABYthr 9,Albany Area,0,72,86,0,42,15218,1980-07-15,107,31.58140000000003,-84.15601999999996,GA,2022-01-02,-6.538118075194993,10.486296706779992,20220315
P68thr 9,Eureka Area,0,101,58,1,37,13402,1985-07-05,105,39.51542000000006,-115.96210999999994,NV,2021-12-04,2.4172967560257326,-14.68025395936821,20220315
PAHthr 9,Paducah Area,0,77,71,2,9,3546,2012-06-29,108,37.08571000000006,-88.59584999999998,KY,2021-12-28,-1.4036853410317498,6.3075205722108585,20220315
DALthr 9,Dallas Area,0,80,81,3,42,15237,1980-06-26,112,32.77822000000003,-96.79511999999994,TX,2021-12-25,-5.961177589901531,-0.20077612688527904,20220315
DANthr 9,Danville Area,0,73,79,20,106,37842,1918-08-06,107,36.58598000000006,-79.41719999999998,VA,2022-01-01,-0.9883659664343001,13.586301233626886,20220315
UNRS2thr 9,Rapid City Downtown Area,0,103,74,9,69,24721,1954-07-09,107,44.08146000000005,-103.23079999999999,SD,2021-12-02,5.608015276616754,-4.707518759952422,20220315
VCTthr 9,Victoria Area,0,73,86,8,22,7861,2000-09-05,111,28.805940000000078,-97.00356999999997,TX,2022-01-01,-9.902693948926206,-0.4170292905241563,20220315
ISPthr 9,Islip Area,0,31,62,2,57,20344,1966-07-03,104,40.728170000000034,-73.21799999999996,NY,2022-02-12,4.083800373022782,17.41795693311391,20220315
ITOthr 9,Hilo Area,0,309,85,1,57,20388,1966-05-20,94,19.71924000000007,-155.08184999999997,HI,2021-05-10,-12.242439556469035,-7.103413432531643,20220315
ACTthr 9,Waco Area,0,75,82,3,3,1331,2018-07-23,114,31.57182000000006,-97.14949999999999,TX,2021-12-30,-7.162641967708949,-0.5115991227778878,20220315
ACYthr 9,Atlantic City Area,0,31,64,2,54,19253,1969-06-28,106,39.36287000000004,-74.42636999999996,NJ,2022-02-12,2.5341174897389114,16.844683491174294,20220315
PBFthr 9,Pine Bluff Area,0,73,80,14,80,28702,1943-08-15,112,34.22353000000004,-92.00339999999994,AR,2022-01-01,-4.44598150041457,3.741746148707495,20220315
PBGthr 9,Plattsburgh Area,0,88,61,5,47,17028,1975-08-01,101,44.699130000000025,-73.45302999999996,NY,2021-12-17,7.902578226919149,16.307719208876538,20220315
DAYthr 9,Dayton Area,0,78,66,1,123,44066,1901-07-22,108,39.75920000000008,-84.19380999999998,OH,2021-12-27,1.6254170860665813,9.432869613720952,20220315
DBQthr 9,Dubuque Area,0,90,69,0,87,31290,1936-07-14,110,42.49913000000004,-90.66326999999995,IA,2021-12-15,3.9365400714209,4.3713397806143,20220315
VRBthr 9,Vero Beach Area,0,73,85,1,13,4649,2009-06-22,102,27.638850000000048,-80.39395999999994,FL,2022-01-01,-9.93283510088018,14.289154810185568,20220315
VTNthr 9,Valentine Area,0,112,77,1,32,11579,1990-07-02,114,42.87384000000003,-100.55061999999998,NE,2021-11-23,4.282273589712578,-2.8506975342218808,20220315
PBIthr 9,West Palm Beach Area,0,187,94,15,81,29092,1942-07-21,101,26.71440000000007,-80.05328999999995,FL,2021-09-09,-10.775029750087644,14.741642279163987,20220315
PDTthr 9,Pendleton Area,0,33,69,0,126,45142,1898-08-10,119,45.671790000000044,-118.78639999999996,OR,2022-02-10,8.877758858534959,-15.314114644726923,20220315
JANthr 9,Jackson Area,0,73,85,0,94,33467,1930-07-29,107,32.29887000000008,-90.18044999999995,MS,2022-01-01,-6.2943416244854165,5.353906204639568,20220315
JAXthr 9,Jacksonville Area,0,39,84,2,24,8670,1998-06-19,103,30.331470000000024,-81.65621999999996,FL,2022-02-04,-7.479159870513771,12.775474406663516,20220315
DCAthr 9,Washington Area,0,88,65,2,94,33476,1930-07-20,106,38.890370000000075,-77.03195999999997,DC,2021-12-17,1.6447775038822843,14.989004943288963,20220315
DDCthr 9,Dodge City Area,0,79,75,5,9,3548,2012-06-27,111,37.75267000000008,-100.01890999999995,KS,2021-12-26,-0.8915253664413052,-2.6820093370720657,20220315
ADQthr 9,Kodiak Area,0,77,56,0,70,25097,1953-06-28,86,57.79517000000004,-152.39468999999997,AK,2021-12-28,-11.683955792870707,-16.926761539338443,20220315
AFLI1thr 9,American Falls Area,0,101,57,10,99,35308,1925-07-14,106,42.78397000000007,-112.85483999999997,ID,2021-12-04,5.196867264629985,-11.768828718947505,20220315
PDXthr 9,Portland Area,0,30,63,0,0,260,2021-06-28,116,45.511790000000076,-122.67562999999996,OR,2022-02-13,9.41660549731958,-17.98567938059781,20220315
DENthr 9,Denver Area,0,103,72,1,9,3550,2012-06-25,105,39.74001000000004,-104.99201999999997,CO,2021-12-02,1.372177271310333,-6.376689078241339,20220315
DEQthr 9,Dequeen Area,0,77,79,16,87,31263,1936-08-10,114,34.036740000000066,-94.33944999999994,AR,2021-12-28,-4.690433376341545,1.829341642442977,20220315
VUOthr 9,Vancouver Area,0,31,65,0,0,260,2021-06-28,115,45.632480000000044,-122.67155999999994,WA,2022-02-12,9.530190773931565,-17.94951964715935,20220315
WALthr 9,Wallops Island Area,0,31,66,2,9,3538,2012-07-07,102,37.844040000000064,-75.47910999999993,VA,2022-02-12,0.8598275673918977,16.38667508647391,20220315
JBRthr 9,Jonesboro Area,0,80,75,2,123,44076,1901-07-12,116,35.83525000000003,-90.70506999999998,AR,2021-12-25,-2.774340598115818,4.715157367658847,20220315
JEFthr 9,Jefferson City Area,0,81,76,9,123,44076,1901-07-12,114,38.577510000000075,-92.17783999999995,MO,2021-12-24,-0.06565539847813738,3.422083945133013,20220315
PGDthr 9,Punta Gorda Area,0,93,87,1,71,25432,1952-07-28,103,26.932950000000062,-82.05288999999993,FL,2021-12-12,-10.840802488535582,12.933359523831383,20220315
PGWO3thr 9,Portland Downtown Area,0,30,63,0,0,260,2021-06-28,114,45.52019000000007,-122.67993999999999,OR,2022-02-13,9.425392911233264,-17.98625452240363,20220315
AGSthr 9,Augusta Area,0,73,82,1,14,5331,2007-08-10,108,33.47929000000005,-81.97521999999998,GA,2022-01-01,-4.409197204906038,12.038756567840416,20220315
AGYthr 9,Skagway Area,0,331,69,3,4,1683,2017-08-05,93,59.46031000000005,-135.30852999999996,AK,2021-04-18,-10.659611544424667,-13.956874681388648,20220315
DERM8thr 9,Deer Lodge Area,0,102,59,0,123,44066,1901-07-22,108,46.397530000000074,-112.73531999999994,MT,2021-12-03,8.719983380665923,-11.048662429745194,20220315
DFWthr 9,Dallas-Fort Worth Area,0,60,79,4,42,15237,1980-06-26,113,32.85568000000006,-97.03801999999996,TX,2022-01-14,-5.881721294908525,-0.4029199486527311,20220315
WJFthr 9,Lancaster Area,0,104,76,1,8,3180,2013-06-30,115,34.698930000000075,-118.14477999999997,CA,2021-12-01,-1.9456931693634538,-17.430142164012892,20220315
WMCthr 9,Winnemucca Area,0,187,101,1,20,7187,2002-07-11,109,40.97327000000007,-117.73518999999999,NV,2021-09-09,4.141867207695297,-15.669378173309479,20220315
PHDthr 9,New Philadelphia Area,0,124,71,2,34,12294,1988-07-17,102,40.48976000000005,-81.44638999999995,OH,2021-11-11,2.642494391231917,11.39285390606761,20220315
PHLthr 9,Philadelphia Area,0,94,68,20,106,37841,1918-08-07,106,39.95222000000007,-75.16217999999998,PA,2021-12-11,2.989518327713281,16.16574471028471,20220315
DLHthr 9,Duluth Area,0,90,49,1,87,31291,1936-07-13,106,46.787960000000055,-92.09984999999995,MN,2021-12-15,8.154147214428226,3.143886986887518,20220315
JERthr 9,Jerome Area,0,187,95,19,83,29854,1940-06-19,110,42.72412000000003,-114.51580999999999,ID,2021-09-09,5.36128304140041,-12.971357839281836,20220315
JFKthr 9,New York-Kennedy Airport Area,0,31,61,2,57,20344,1966-07-03,104,40.667731323816156,-73.7713740736271,NY,2022-02-12,3.9273478321597577,17.027899321936967,20220315
AHNthr 9,Athens Area,0,73,77,2,9,3546,2012-06-29,109,33.95816000000008,-83.37311999999997,GA,2022-01-01,-4.093797617742891,10.828316774590125,20220315
AKIS1thr 9,Aiken Area,1,501,88,2,39,14085,1983-08-22,109,33.56164000000007,-81.72213999999997,SC,2020-10-30,-4.296433116559001,12.233659787965069,20220315
PHXthr 9,Phoenix Area,0,103,84,1,32,11585,1990-06-26,122,33.44825000000003,-112.07579999999996,AZ,2021-12-02,-4.172772787394734,-12.79416841886727,20220315
PIAthr 9,Peoria Area,0,89,66,15,87,31289,1936-07-15,113,40.692360000000065,-89.58798999999999,IL,2021-12-16,2.1714051080822205,5.280300422491056,20220315
DRTthr 9,Del Rio Area,0,61,82,1,34,12332,1988-06-09,112,29.366510000000062,-100.89829999999995,TX,2022-01-13,-9.246561278794918,-3.8045118785774306,20220315
DSMthr 9,Des Moines Area,0,90,74,0,87,31279,1936-07-25,110,41.58981000000006,-93.61537999999996,IA,2021-12-15,2.9350830472825895,2.2334872381872253,20220315
YAKthr 9,Yakutat Area,0,241,77,2,18,6421,2004-08-15,88,59.549240000000054,-139.73210999999998,AK,2021-07-17,-10.818727459787212,-14.72321258489575,20220315
YKMthr 9,Yakima Area,0,33,70,0,0,259,2021-06-29,113,46.60448000000008,-120.50720999999999,WA,2022-02-10,10.057847548266722,-16.24268005541257,20220315
PICS1thr 9,Pickens Area,0,78,75,2,29,10457,1993-07-28,106,34.88370000000003,-82.70750999999996,SC,2021-12-27,-3.0974478502191394,11.241140999832588,20220315
PIHthr 9,Pocatello Area,0,101,57,1,22,7906,2000-07-22,104,42.874970000000076,-112.45055999999994,ID,2021-12-04,5.235458584809986,-11.462626706438071,20220315
JKLthr 9,Jackson Area,0,73,72,2,9,3546,2012-06-29,104,37.558100000000024,-83.37800999999996,KY,2022-01-01,-0.4975693602287328,10.343375792580455,20220315
JNUthr 9,Juneau Area,0,330,65,19,47,17053,1975-07-07,90,58.29973000000007,-134.40678999999994,AK,2021-04-19,-10.998059272749675,-13.685166202989564,20220315
AKNthr 9,King Salmon Area,1,572,75,2,2,985,2019-07-04,89,58.69707000000005,-156.70210999999998,AK,2020-08-20,-11.36745598234372,-17.71488320647364,20220315
ALBthr 9,Albany Area,0,89,61,5,113,40432,1911-07-04,104,42.65155000000004,-73.75520999999998,NY,2021-12-16,5.867202765272686,16.576182662333554,20220315
DTWthr 9,Detroit Area,1,370,70,10,89,32011,1934-07-24,105,42.33168000000006,-83.04799999999994,MI,2021-03-10,4.304392122637939,9.945847698014573,20220315
DWRI1thr 9,Dworshak Area,0,33,58,0,89,32007,1934-07-28,118,46.488355037983666,-116.25076488882804,ID,2022-02-10,9.27161149416776,-13.414357268762803,20220315
PITthr 9,Pittsburgh Area,0,79,68,4,34,12295,1988-07-16,103,40.438510000000065,-79.99733999999995,PA,2021-12-26,2.766236905100695,12.479859692950372,20220315
PKBthr 9,Parkersburg Area,0,89,67,2,94,33468,1930-07-28,104,39.263720000000035,-81.55856999999997,WV,2021-12-16,1.4073639756101817,11.496547813759566,20220315
YNGthr 9,Youngstown Area,0,89,61,2,87,31294,1936-07-10,103,41.098100000000045,-80.65078999999997,OH,2021-12-16,3.341038333012361,11.886596333980918,20220315
YUMthr 9,Yuma Area,0,101,83,18,27,9727,1995-07-28,124,32.68549000000007,-114.62460999999996,AZ,2021-12-04,-4.5412439511885925,-15.020568318241516,20220315
EAUthr 9,Eau Claire Area,0,89,53,20,87,31291,1936-07-13,111,44.816580000000044,-91.50076999999999,WI,2021-12-16,6.2203898742544785,3.648483742676507,20220315
ECGthr 9,Elizabeth City Area,0,73,77,2,81,29095,1942-07-18,107,36.30150000000003,-76.21975999999995,NC,2022-01-01,-0.7858656243357977,16.142261388558648,20220315
JSTN6thr 9,Jamestown Area,0,88,61,5,34,12320,1988-06-21,103,42.09605000000005,-79.23779999999994,NY,2021-12-17,4.5058201382771825,12.751254264855412,20220315
LALthr 9,Lakeland Area,0,39,86,0,37,13433,1985-06-04,105,28.04419000000007,-81.94785999999993,FL,2022-02-04,-9.75110079200028,12.863685625977512,20220315
ALOthr 9,Waterloo Area,0,90,74,0,87,31291,1936-07-13,112,42.49329000000006,-92.34193999999997,IA,2021-12-15,3.872645648346341,3.1431756922381555,20220315
ALSthr 9,Alamosa Area,0,61,53,1,33,11941,1989-07-05,96,37.468180000000075,-105.87324999999998,CO,2022-01-13,-0.8426178485415861,-7.282614453606411,20220315
PMDthr 9,Palmdale Area,0,104,76,1,32,11545,1990-08-05,118,34.579360000000065,-118.11658999999997,CA,2021-12-01,-2.068226729740099,-17.435576777188786,20220315
PNSthr 9,Pensacola Area,0,72,78,2,42,15219,1980-07-14,106,30.420840000000055,-87.21722999999997,FL,2022-01-02,-7.966950800579824,8.0119437779339,20220315
ZZVthr 9,Zanesville Area,1,490,78,2,87,31290,1936-07-14,106,39.940540000000055,-82.00138999999996,OH,2020-11-10,2.0322321078142616,11.06047772889583,20220315
EEDthr 9,Needles Area,0,32,84,1,4,1729,2017-06-20,125,34.83854000000008,-114.60446999999999,CA,2022-02-11,-2.4213338271486435,-14.582238994147504,20220315
EKAthr 9,Eureka Area,0,33,71,4,4,1655,2017-09-02,87,40.803270000000055,-124.15952999999996,CA,2022-02-10,5.222217540883813,-20.364121450479594,20220315
LANthr 9,Lansing Area,0,89,63,9,9,3539,2012-07-06,103,42.731940000000066,-84.55224999999996,MI,2021-12-16,4.56209751981555,8.801876475165326,20220315
LASthr 9,Las Vegas Area,0,104,75,0,4,1729,2017-06-20,117,36.17193000000003,-115.14000999999996,NV,2021-12-01,-1.0179089224541729,-14.740468645684297,20220315
POFthr 9,Poplar Bluff Area,0,77,70,61,123,44076,1901-07-12,112,36.756980000000055,-90.39326999999997,MO,2021-12-28,-1.8319669319897844,4.9103721840256265,20220315
POUthr 9,Poughkeepsie Area,0,89,64,4,90,32368,1933-08-01,104,41.70712000000003,-73.92914999999994,NY,2021-12-16,4.916670309299846,16.671316970826783,20220315
AMAthr 9,Amarillo Area,0,79,75,1,10,3915,2011-06-26,111,35.207250000000045,-101.83388999999994,TX,2021-12-26,-3.380559707872433,-4.258770014020775,20220315
ANCthr 9,Anchorage Area,0,52,44,2,2,985,2019-07-04,90,61.21753000000007,-149.85824999999997,AK,2022-01-22,-10.486577416560298,-16.530379453926916,20220315
EKNthr 9,Elkins Area,0,89,71,2,34,12295,1988-07-16,99,38.92402000000004,-79.84448999999995,WV,2021-12-16,1.280054650566424,12.85211143576742,20220315
EKOthr 9,Elko Area,0,187,97,1,41,14864,1981-07-04,107,40.835680000000025,-115.76753999999994,NV,2021-09-09,3.6880518772458117,-14.25971868897698,20220315
LAWthr 9,Lawton Area,0,61,76,4,87,31262,1936-08-11,115,34.605180000000075,-98.38991999999996,OK,2022-01-13,-4.106624139503615,-1.4871677461893873,20220315
LAXthr 9,Los Angeles Airport Area,0,30,85,19,59,21355,1963-09-26,110,33.94251000000003,-118.40896999999995,CA,2022-02-13,-2.6364143026961444,-17.81776689601847,20220315
ANJthr 9,Sault Ste Marie Area,0,42,42,1,103,36780,1921-07-03,98,46.49231000000003,-84.35171999999994,MI,2022-02-01,8.295287531437554,8.486567730826405,20220315
PSCthr 9,Tri-Cities Area,0,33,69,0,0,261,2021-06-27,115,46.245400000000075,-119.19616999999994,WA,2022-02-10,9.49425164779582,-15.453817900538207,20220315
PSPthr 9,Palm Springs Area,0,32,93,0,0,271,2021-06-17,123,33.823210000000074,-116.51195999999999,CA,2022-02-11,-3.1029324875900133,-16.321144332784687,20220315
ELJC1thr 9,El Cajon Area,0,30,88,1,1,556,2020-09-05,114,32.79495000000003,-116.95902999999998,CA,2022-02-13,-4.031422238646855,-16.90752641176869,20220315
ELPthr 9,El Paso Area,0,60,71,6,28,10120,1994-06-30,114,31.759160000000065,-106.48748999999998,TX,2022-01-14,-6.4958520047039645,-8.396241681344446,20220315
LBBthr 9,Lubbock Area,0,79,80,1,28,10123,1994-06-27,114,33.58451000000008,-101.84500999999995,TX,2021-12-26,-5.008147563022485,-4.368287009129954,20220315
LBFthr 9,North Platte Area,0,90,69,1,69,24719,1954-07-11,112,41.13632000000007,-100.76332999999994,NE,2021-12-15,2.5453927508368563,-3.093157511601963,20220315
APNthr 9,Alpena Area,0,89,60,10,87,31291,1936-07-13,106,45.06156000000004,-83.44514999999996,MI,2021-12-16,6.969526660545632,9.295763111944385,20220315
ASTthr 9,Astoria Area,0,261,101,0,0,261,2021-06-27,101,46.18977000000007,-123.83394999999996,OR,2021-06-27,10.281715915299234,-18.56873289994513,20220315
PTDN6thr 9,Fredonia Area,0,88,64,5,87,31295,1936-07-09,98,42.44029000000006,-79.33185999999995,NY,2021-12-17,4.833849485205596,12.622546768329931,20220315
PUBthr 9,Pueblo Area,0,103,74,1,19,6820,2003-07-13,109,38.26375000000007,-104.61251999999996,CO,2021-12-02,-0.13877657488314554,-6.223678866397664,20220315
ELYthr 9,Ely Area,0,103,64,1,20,7186,2002-07-12,101,39.24705000000006,-114.89482999999996,NV,2021-12-02,1.9864582307727583,-13.935083926749192,20220315
ERIthr 9,Erie Area,0,89,65,2,34,12316,1988-06-25,100,42.12982000000005,-80.08549999999997,PA,2021-12-16,4.432723773553106,12.130156696469172,20220315
LBTthr 9,Lumberton Area,0,73,81,2,98,34936,1926-07-21,108,34.61898000000008,-79.01397999999995,NC,2022-01-01,-2.88389243517318,14.254827941016043,20220315
LCHthr 9,Lake Charles Area,0,65,79,22,22,7866,2000-08-31,107,30.224030000000027,-93.22010999999998,LA,2022-01-09,-8.472785803221072,2.861697811946929,20220315
ASXthr 9,Ashland Area,0,89,55,1,89,32012,1934-07-23,107,46.58540000000005,-90.88628999999997,WI,2021-12-16,7.993749940623693,3.987979253149965,20220315
PUWthr 9,Pullman Area,0,33,57,0,62,22138,1961-08-04,110,46.73015000000004,-117.18146999999999,WA,2022-02-10,9.640534526330018,-13.988559886822129,20220315
PVDthr 9,Providence Area,0,31,63,2,47,17027,1975-08-02,104,41.823870000000056,-71.41198999999995,RI,2022-02-12,5.48127096043805,18.450443743098482,20220315
ESCC1thr 9,Escondido Area,0,31,90,1,1,555,2020-09-06,115,33.12354000000005,-117.08233999999999,CA,2022-02-12,-3.6870566652244867,-16.935308133456257,20220315
EUGthr 9,Eugene Area,0,30,66,0,0,261,2021-06-27,111,44.04992000000004,-123.08853999999997,OR,2022-02-13,8.107386974070925,-18.67532786785433,20220315
LEEthr 9,Leesburg Area,0,72,85,2,31,11172,1991-08-13,101,28.811100000000067,-81.87727999999998,FL,2022-01-02,-8.995542526118786,12.81225600666604,20220315
LEXthr 9,Lexington Area,0,77,67,2,87,31294,1936-07-10,108,38.04859000000005,-84.50031999999999,KY,2021-12-28,-0.11739275936922192,9.409626733059943,20220315
ATLthr 9,Atlanta Area,0,72,73,2,9,3545,2012-06-30,106,33.74831000000006,-84.39110999999997,GA,2022-01-02,-4.409316494707099,10.022816135939348,20220315
ATTthr 9,Austin Area,0,74,83,3,10,3852,2011-08-28,112,30.26759000000004,-97.74298999999996,TX,2021-12-31,-8.45069007811515,-1.0391086012711637,20220315
PWMthr 9,Portland Area,0,31,54,4,113,40432,1911-07-04,103,43.65915000000007,-70.25667999999996,ME,2022-02-12,7.470967348735086,18.781316909732197,20220315
RALthr 9,Riverside Area,0,31,88,1,107,38258,1917-06-16,118,33.98171000000008,-117.37403999999998,CA,2022-02-12,-2.7922908921781455,-16.979287286437717,20220315
EVVthr 9,Evansville Area,0,80,72,2,94,33468,1930-07-28,111,37.97708000000006,-87.56404999999995,IN,2021-12-25,-0.43941500884254037,7.040081199047086,20220315
EWNthr 9,New Bern Area,0,73,80,2,71,25438,1952-07-22,106,35.10847000000007,-77.04150999999996,NC,2022-01-01,-2.0981811138623487,15.738310941486272,20220315
LGAthr 9,New York-LGA Area,0,72,60,2,57,20344,1966-07-03,107,40.71455000000003,-74.00713999999994,NY,2022-01-02,3.932423889214692,16.844547520970796,20220315
LGBthr 9,Long Beach Area,0,123,95,3,11,4187,2010-09-27,111,33.76672000000008,-118.19239999999996,CA,2021-11-12,-2.8499141595307114,-17.685300850265236,20220315
AUSthr 9,Austin-Bergstrom Airport Area,0,74,83,3,22,7861,2000-09-05,112,30.202150000000074,-97.66712999999999,TX,2021-12-31,-8.51666598299121,-0.9748567139576276,20220315
AUWthr 9,Wausau Area,0,81,42,22,87,31291,1936-07-13,107,44.95953000000003,-89.63030999999995,WI,2021-12-24,6.437605158310241,4.961194033602631,20220315
RAPthr 9,Rapid City Area,0,103,75,0,16,5722,2006-07-15,111,44.08146000000005,-103.23079999999999,SD,2021-12-02,5.608015276616754,-4.707518759952422,20220315
RDDthr 9,Redding Area,0,32,85,0,34,12291,1988-07-20,118,40.587600000000066,-122.39254999999997,CA,2022-02-11,4.639787272148692,-19.151767997238828,20220315
EWRthr 9,Newark Area,0,89,65,0,10,3889,2011-07-22,108,40.73197000000005,-74.17420999999996,NJ,2021-12-16,3.9208721838906624,16.71831422607463,20220315
EYWthr 9,Key West Area,0,306,90,2,67,23942,1956-08-26,97,24.554500000000075,-81.80022999999994,FL,2021-05-13,-13.086058883952846,13.508113833267013,20220315
LHUthr 9,Lake Havasu City Area,0,30,84,0,28,10121,1994-06-29,128,34.47440000000006,-114.34631999999999,AZ,2022-02-13,-2.8218236166748056,-14.446514041149882,20220315
LIHthr 9,Lihue Area,0,228,88,2,2,933,2019-08-25,91,21.975050000000067,-159.36907999999997,HI,2021-07-30,-10.038788680490287,-11.131197187854525,20220315
AVLthr 9,Asheville Area,0,80,71,2,39,14086,1983-08-21,100,35.59868000000006,-82.55339999999995,NC,2021-12-25,-2.3666813298292184,11.263562900799897,20220315
AVPthr 9,Avoca Area,0,88,61,4,87,31295,1936-07-09,103,41.33588000000003,-75.74325999999996,PA,2021-12-17,4.256292366114091,15.439430666733019,20220315
RDGthr 9,Reading Area,0,89,62,4,10,3889,2011-07-22,106,40.33662000000004,-75.92783999999995,PA,2021-12-16,3.2441963306105075,15.516256454821537,20220315
RDUthr 9,Raleigh Area,0,73,79,2,9,3546,2012-06-29,105,35.78547000000003,-78.64269999999993,NC,2022-01-01,-1.6733389450400098,14.339259011317738,20220315
FAIthr 9,Fairbanks Area,0,78,40,13,105,37486,1919-07-28,99,64.84525000000008,-147.72209999999998,AK,2021-12-27,-9.210481989965322,-16.292981301632516,20220315
FARthr 9,Fargo Area,0,168,90,6,87,31298,1936-07-06,114,46.87591000000003,-96.78175999999996,ND,2021-09-28,8.188596530990749,-0.07290242868717743,20220315
LITthr 9,Little Rock Area,0,77,74,6,10,3877,2011-08-03,114,34.74870000000004,-92.27484999999996,AR,2021-12-28,-3.9274093927074696,3.498476841923208,20220315
LLJthr 9,Challis Area,0,103,63,0,20,7186,2002-07-12,103,44.50485000000003,-114.23681999999997,ID,2021-12-02,7.067714666502853,-12.430349564733431,20220315
AZOthr 9,Kalamazoo Area,0,89,62,3,87,31291,1936-07-13,109,42.291570000000036,-85.58838999999995,MI,2021-12-16,4.036253340241881,8.098812811484331,20220315
BAFthr 9,Westfield Area,0,31,56,1,11,4270,2010-07-06,103,42.120220000000074,-72.75414999999998,MA,2022-02-12,5.523453512642442,17.416586980206617,20220315
RFDthr 9,Rockford Area,0,81,55,5,87,31290,1936-07-14,112,42.26690000000008,-89.07739999999995,IL,2021-12-24,3.778634783948919,5.547720116640301,20220315
RHIthr 9,Rhinelander Area,0,89,51,10,87,31291,1936-07-13,108,45.63839000000007,-89.41130999999996,WI,2021-12-16,7.1209231394371715,5.06853192974428,20220315
FATthr 9,Fresno Area,0,30,81,7,119,42619,1905-07-08,115,36.740950000000055,-119.78535999999997,CA,2022-02-13,0.3703278282015772,-18.218702763658914,20220315
FAYthr 9,Fayetteville Area,0,73,81,0,91,32743,1932-07-22,107,35.05534000000006,-78.87726999999995,NC,2022-01-01,-2.4315564024487095,14.285779147716783,20220315
LMTthr 9,Klamath Falls Area,0,30,66,0,50,18117,1972-08-07,104,42.223880000000065,-121.78205999999994,OR,2022-02-13,6.097554977099349,-18.26747932677067,20220315
LNDthr 9,Lander Area,0,101,64,0,88,31643,1935-07-27,102,42.83309000000003,-108.73093999999998,WY,2021-12-04,4.781057258990292,-8.790125461714904,20220315
BDLthr 9,Hartford Area,0,31,59,4,10,3889,2011-07-22,103,41.76375000000007,-72.67393999999996,CT,2022-02-12,5.1909624260149645,17.561141309430926,20220315
BDRthr 9,Bridgeport Area,0,31,60,2,10,3889,2011-07-22,103,41.18213000000003,-73.19063999999997,CT,2022-02-12,4.532048672266252,17.329121481759845,20220315
RICthr 9,Richmond Area,0,72,72,20,106,37842,1918-08-06,107,37.540680000000066,-77.43366999999995,VA,2022-01-02,0.24726784811337052,14.949898696745288,20220315
RNKthr 9,Blacksburg Area,0,72,70,2,98,34935,1926-07-22,100,37.226530000000025,-80.41089999999997,VA,2022-01-02,-0.48347765180704094,12.701639930064243,20220315
FCAthr 9,Kalispell Area,0,33,56,0,62,22138,1961-08-04,105,48.20189000000005,-114.31499999999994,MT,2022-02-10,10.653021423820945,-11.778871570931159,20220315
FLGthr 9,Flagstaff Area,0,248,96,15,49,17785,1973-07-05,97,35.19820000000004,-111.65129999999999,AZ,2021-07-10,-2.494235307781832,-12.158158375843804,20220315
LNKthr 9,Lincoln Area,0,81,65,22,87,31279,1936-07-25,115,40.81362000000007,-96.70729999999998,NE,2021-12-24,2.133170978057469,-0.06705630992013119,20220315
LOXthr 9,Oxnard Area,0,31,90,4,5,1996,2016-09-26,105,34.20034000000004,-119.18011999999999,CA,2022-02-12,-2.2338331878420123,-18.371834305506876,20220315
BELN4thr 9,Belvidere Area,0,93,64,4,87,31295,1936-07-09,106,40.82567000000006,-75.07896999999997,NJ,2021-12-12,3.8616470113248993,16.035027861534484,20220315
BETthr 9,Bethel Area,0,240,78,2,98,34970,1926-06-17,90,60.794340000000034,-161.76091999999997,AK,2021-07-18,-10.578291578129184,-18.542722330909466,20220315
RNMthr 9,Ramona Area,0,31,85,1,3,1348,2018-07-06,117,33.04195000000004,-116.86871999999994,CA,2022-02-12,-3.805856672595161,-16.779752253968926,20220315
RNOthr 9,Reno Area,0,61,64,1,15,5367,2007-07-05,108,39.527660000000026,-119.81352999999996,NV,2022-01-13,3.1002962214989784,-17.54270953078366,20220315
FLLthr 9,Fort Lauderdale Area,0,324,93,7,13,4649,2009-06-22,100,26.123880000000042,-80.14356999999995,FL,2021-04-25,-11.355307224657295,14.758855411331222,20220315
FMYthr 9,Fort Myers Area,0,64,87,5,41,14882,1981-06-16,103,26.640840000000026,-81.86792999999994,FL,2022-01-10,-11.09849953373429,13.14049276913697,20220315
LRDthr 9,Laredo Area,0,73,94,11,97,34646,1927-05-07,115,27.530920000000037,-99.50222999999994,TX,2022-01-01,-11.1004211372643,-2.6561291006660253,20220315
LSEthr 9,La Crosse Area,0,90,69,0,27,9742,1995-07-13,108,43.812670000000026,-91.25205999999997,WI,2021-12-15,5.2283266126865096,3.874666064564634,20220315
BFFthr 9,Scottsbluff Area,0,103,77,0,84,30198,1939-07-11,110,41.862190000000055,-103.66273999999999,NE,2021-12-02,3.4148201732265364,-5.1955033636211505,20220315
BFLthr 9,Bakersfield Area,0,29,80,10,116,41503,1908-07-28,118,35.36730000000006,-119.01885999999996,CA,2022-02-14,-1.1238164671028827,-17.961169046423745,20220315
ROAthr 9,Roanoke Area,0,80,69,4,87,31294,1936-07-10,105,37.271520000000066,-79.94056999999998,VA,2021-12-25,-0.37723345908786776,13.059754809541246,20220315
ROCthr 9,Rochester Area,0,89,65,25,87,31295,1936-07-09,102,43.155800000000056,-77.61631999999997,NY,2021-12-16,5.766789322996153,13.720718017319237,20220315
FNTthr 9,Flint Area,0,89,63,6,87,31296,1936-07-08,108,43.01144000000005,-83.68678999999997,MI,2021-12-16,4.918421676628152,9.392522754945842,20220315
FPRthr 9,Fort Pierce Area,0,74,85,24,73,26193,1950-06-28,101,27.449040000000025,-80.32677999999999,FL,2021-12-31,-10.106694539537198,14.379141414510368,20220315
LWSthr 9,Lewiston Area,0,103,61,0,84,30182,1939-07-27,117,46.41873000000004,-117.01704999999998,ID,2021-12-02,9.317241566644835,-13.946302184734208,20220315
LYHthr 9,Lynchburg Area,0,73,74,20,87,31294,1936-07-10,106,37.41420000000005,-79.14299999999997,VA,2022-01-01,-0.1271221378276183,13.653483992818678,20220315
BGDthr 9,Borger Area,0,28,78,0,1,612,2020-07-11,116,35.667950000000076,-101.39042999999998,TX,2022-02-15,-2.938379852957641,-3.873844663741427,20220315
BGMthr 9,Binghamton Area,0,89,60,5,34,12295,1988-07-16,98,42.09871000000004,-75.91118999999998,NY,2021-12-16,4.979026700126061,15.155906398015045,20220315
ROWthr 9,Roswell Area,0,60,76,1,28,10123,1994-06-27,114,33.39509000000004,-104.52274999999997,NM,2022-01-14,-5.030771902034505,-6.594034612947585,20220315
RSTthr 9,Rochester Area,0,81,41,4,87,31290,1936-07-14,108,44.01932000000005,-92.45932999999997,MN,2021-12-24,5.397074355894161,3.000105459591262,20220315
FSDthr 9,Sioux Falls Area,0,56,52,1,34,12320,1988-06-21,110,43.54577000000006,-96.73127999999997,SD,2022-01-18,4.878455949982473,-0.06388819382329176,20220315
FSMthr 9,Fort Smith Area,0,77,74,4,10,3877,2011-08-03,115,35.384700000000066,-94.42144999999994,AR,2021-12-28,-3.3360147450053534,1.7393408021896437,20220315
MAEthr 9,Madera Area,0,29,76,7,62,22160,1961-07-13,116,36.96205000000003,-120.06398999999999,CA,2022-02-14,0.6415170013689406,-18.37696846374654,20220315
MAFthr 9,Midland-Odessa Area,0,78,79,2,28,10123,1994-06-27,116,31.833842173884822,-102.35695776993573,TX,2021-12-27,-6.728864009604487,-4.908597530427361,20220315
BGRthr 9,Bangor Area,0,93,60,10,88,31620,1935-08-19,104,44.80171000000007,-68.77076999999997,ME,2021-12-12,8.85066551188116,19.486462142265285,20220315
BHMthr 9,Birmingham Area,0,73,80,2,94,33467,1930-07-29,107,33.52072000000004,-86.81178999999997,AL,2022-01-01,-4.854182485052401,8.058723331347675,20220315
RUEthr 9,Russellville Area,0,77,76,9,10,3877,2011-08-03,115,35.27829000000003,-93.13480999999996,AR,2021-12-28,-3.4188660373021156,2.7820452035824066,20220315
SACthr 9,Sacramento Area,0,30,76,1,62,22188,1961-06-15,115,38.579440000000034,-121.49084999999997,CA,2022-02-13,2.506610353842384,-19.035177688945247,20220315
FWAthr 9,Fort Wayne Area,0,342,81,3,34,12316,1988-06-25,106,41.08026000000007,-85.13830999999999,IN,2021-04-07,2.8628768186121545,8.566626546023008,20220315
GEDthr 9,Georgetown Area,0,72,68,2,10,3889,2011-07-22,104,38.690720000000056,-75.38673999999997,DE,2022-01-02,1.7100640355963421,16.27324440771166,20220315
MBGthr 9,Mobridge Area,0,104,71,0,16,5722,2006-07-15,116,45.537420000000054,-100.44034999999997,SD,2021-12-01,6.934364884970911,-2.6456628274177345,20220315
MBSthr 9,Saginaw Area,0,89,62,10,87,31291,1936-07-13,111,43.41940000000005,-83.94651999999996,MI,2021-12-16,5.299544163231949,9.153336908635572,20220315
SANthr 9,San Diego Area,0,31,91,0,59,21355,1963-09-26,111,32.71568000000008,-117.16170999999997,CA,2022-02-12,-4.071875570643338,-17.090348958976232,20220315
SATthr 9,San Antonio Area,0,74,83,1,22,7861,2000-09-05,111,29.42458000000005,-98.49460999999997,TX,2021-12-31,-9.269693097933773,-1.709187834459288,20220315
BIGthr 9,Delta Junction Area,0,77,42,13,54,19266,1969-06-15,92,64.04668000000004,-145.73623999999998,AK,2021-12-28,-9.452555839356483,-15.96467912568279,20220315
BIHthr 9,Bishop Area,0,32,77,0,0,248,2021-07-10,111,37.36680000000007,-118.39534999999995,CA,2022-02-11,0.7193691420455869,-17.000306661929816,20220315
GEGthr 9,Spokane Area,0,104,59,0,0,259,2021-06-29,109,47.657260000000065,-117.41227999999995,WA,2021-12-01,10.560219194021817,-13.937378027910286,20220315
GFKthr 9,Grand Forks Area,0,167,88,22,87,31292,1936-07-12,109,47.924330000000054,-97.03172999999998,ND,2021-09-29,9.220221786160494,-0.23317751882213092,20220315
MCEthr 9,Merced Area,0,30,80,1,99,35305,1925-07-17,114,37.30152000000004,-120.48689999999999,CA,2022-02-13,1.0574844446999376,-18.613451428347794,20220315
MCGthr 9,Mcgrath Area,0,224,88,7,8,3193,2013-06-17,94,62.94383000000005,-155.56586999999996,AK,2021-08-03,-9.908401529039631,-17.47390505716297,20220315
BILthr 9,Billings Area,0,91,56,0,20,7184,2002-07-14,108,45.784260000000074,-108.50606999999997,MT,2021-12-14,7.675787193532682,-8.239326548766112,20220315
BISthr 9,Bismarck Area,0,104,66,0,87,31298,1936-07-06,114,46.805360000000064,-100.77968999999996,ND,2021-12-01,8.198597360039374,-2.8194846923270034,20220315
SAVthr 9,Savannah Area,0,72,83,2,36,13022,1986-07-20,105,32.080910000000074,-81.09118999999998,GA,2022-01-02,-5.68266793642671,12.982318699257382,20220315
SBNthr 9,South Bend Area,0,90,64,10,89,32011,1934-07-24,109,41.679070000000024,-86.25404999999995,IN,2021-12-15,3.3722381826467505,7.675585038642735,20220315
GFLthr 9,Glens Falls Area,0,88,60,5,113,40433,1911-07-03,101,43.31122000000005,-73.64375999999999,NY,2021-12-17,6.527362112050244,16.500814294839522,20220315
GGGthr 9,Longview Area,0,74,80,16,87,31263,1936-08-10,113,32.50064000000003,-94.74060999999995,TX,2021-12-31,-6.234594242221189,1.5199476114332564,20220315
MCIthr 9,Kansas City Area,0,81,72,9,87,31259,1936-08-14,113,39.103440000000035,-94.58310999999998,MO,2021-12-24,0.4139951226966094,1.552748809089472,20220315
MCKthr 9,McCook Area,0,103,78,7,9,3549,2012-06-26,115,40.198600000000056,-100.62565999999998,NE,2021-12-02,1.596262396709573,-3.036451266998501,20220315
BIVthr 9,Holland Area,0,89,66,3,9,3539,2012-07-06,102,42.77358000000004,-86.10225999999994,MI,2021-12-16,4.477210673423639,7.672955329987065,20220315
BKEthr 9,Baker City Area,0,187,93,0,3,1313,2018-08-10,109,44.77400000000006,-117.82988999999998,OR,2021-09-09,7.858374845693424,-14.868302674395744,20220315
MCNthr 9,Macon Area,0,73,82,0,9,3545,2012-06-30,108,32.83994000000007,-83.62801999999994,GA,2022-01-01,-5.233846393936528,10.766423350644303,20220315
MCOthr 9,Orlando Area,0,236,97,24,103,36713,1921-09-08,103,28.538230000000055,-81.37738999999993,FL,2021-07-22,-9.196033989622796,13.287688002764844,20220315
BKVthr 9,Brooksville Area,0,74,85,2,97,34617,1927-06-05,104,28.554650000000038,-82.38781999999998,FL,2021-12-31,-9.309974540613833,12.40550270741392,20220315
BKWthr 9,Beckley Area,0,89,67,2,98,34936,1926-07-21,103,37.77792000000005,-81.18785999999994,WV,2021-12-16,-0.031010670485528524,12.01035818847798,20220315
SBYthr 9,Salisbury Area,0,72,70,20,94,33475,1930-07-21,106,38.36573000000004,-75.59531999999996,MD,2022-01-02,1.3550374685505993,16.185663654105092,20220315
SCKthr 9,Stockton Area,0,30,76,1,16,5714,2006-07-23,115,37.953730000000064,-121.29045999999994,CA,2022-02-13,1.8565236974107624,-19.051694436893293,20220315
GGWthr 9,Glasgow Area,0,36,58,0,124,44422,1900-07-31,113,48.19512000000003,-106.63688999999994,MT,2022-02-07,9.875685472599493,-6.676479616940182,20220315
GIFthr 9,Winter Haven Area,0,39,86,2,78,28047,1945-05-31,103,28.022320000000036,-81.73294999999996,FL,2022-02-04,-9.744495016642906,13.055170873604919,20220315
MDHthr 9,Carbondale Area,0,80,74,9,93,33456,1930-08-09,113,37.72730000000007,-89.21579999999994,IL,2021-12-25,-0.7941103118139541,5.772884532306076,20220315
MDTthr 9,Middletown-Harrisburg Area,0,88,60,4,57,20344,1966-07-03,107,40.25986000000006,-76.88222999999994,PA,2021-12-17,3.0210367461490093,14.82593869154401,20220315
BLFthr 9,Bluefield Area,2,717,81,9,71,25432,1952-07-28,99,37.26798000000008,-81.22261999999995,WV,2020-03-28,-0.5439456374788604,12.063220628350065,20220315
BNAthr 9,Nashville Area,0,73,78,0,9,3546,2012-06-29,109,36.16784000000007,-86.77815999999996,TN,2022-01-01,-2.200126021367506,7.827855616556406,20220315
SDFthr 9,Louisville Area,0,77,70,2,87,31290,1936-07-14,107,38.254890000000046,-85.76665999999994,KY,2021-12-28,-0.022932366823411196,8.40616914321537,20220315
SEAthr 9,Seattle Tacoma Area,0,107,59,0,0,260,2021-06-28,108,47.14524056244803,-122.50513620892333,WA,2021-11-28,10.925922364889367,-17.422314224201365,20220315
GJTthr 9,Grand Junction Area,0,91,59,0,0,249,2021-07-09,107,39.068790000000035,-108.56444999999997,CO,2021-12-14,1.0085524045646093,-9.170046851051328,20220315
GKNthr 9,Gulkana Area,0,50,40,3,109,38965,1915-07-10,97,62.269850000000076,-145.38026999999997,AK,2022-01-24,-10.055001236656755,-15.829985937638579,20220315
MEIthr 9,Meridian Area,0,73,82,2,42,15219,1980-07-14,107,32.365080000000034,-88.70307999999994,MS,2022-01-01,-6.1432220830897055,6.588041883028243,20220315
MEMthr 9,Memphis Area,0,73,79,0,42,15220,1980-07-13,108,35.14976000000007,-90.04924999999997,TN,2022-01-01,-3.432479868740251,5.2843538470307685,20220315
BNOthr 9,Burns Area,0,33,62,0,20,7186,2002-07-12,107,43.586040000000025,-119.05464999999998,OR,2022-02-10,6.912394618417171,-15.998295927055132,20220315
BOIthr 9,Boise Area,0,187,98,6,126,45171,1898-07-12,111,43.60764000000006,-116.19339999999994,ID,2021-09-09,6.471267043218906,-13.983734724094116,20220315
MFDthr 9,Mansfield Area,0,94,63,2,89,32014,1934-07-21,105,40.75854000000004,-82.51523999999995,OH,2021-12-11,2.7922848766133903,10.557467883061314,20220315
MFEthr 9,McAllen Area,0,73,92,4,4,1727,2017-06-22,111,26.207700000000045,-98.22930999999994,TX,2022-01-01,-12.420412997815374,-1.5532788086811522,20220315
BOSthr 9,Boston Area,0,31,60,2,113,40432,1911-07-04,104,42.35866000000004,-71.05673999999993,MA,2022-02-12,6.066087013052897,18.564651024737994,20220315
BPTthr 9,Beaumont-Port Arthur Area,0,73,81,22,122,43709,1902-07-14,108,29.877653959074355,-93.93985584337597,TX,2022-01-01,-8.831173609895346,2.248469173746908,20220315
SEWthr 9,Seattle City Area,0,214,93,0,0,260,2021-06-28,107,47.620490000000075,-122.35102999999998,WA,2021-08-13,11.343368148613507,-17.191701016811624,20220315
SFBthr 9,Sanford Area,0,73,85,1,24,8658,1998-07-01,103,28.81397000000004,-81.26803999999998,FL,2022-01-01,-8.912881629025765,13.340332519314144,20220315
GLDthr 9,Goodland Area,0,91,66,5,83,29818,1940-07-25,111,39.36573000000004,-101.71196999999995,KS,2021-12-14,0.8020611559049337,-3.9080439326523777,20220315
GLHthr 9,Greenville Area,0,73,82,2,94,33467,1930-07-29,110,33.398960000000045,-91.03777999999994,MS,2022-01-01,-5.2353199735941045,4.5764440009341705,20220315
MFRthr 9,Medford Area,0,31,71,0,0,260,2021-06-28,115,42.32356000000004,-122.87561,OR,2022-02-12,6.4120089516122505,-19.013125994035384,20220315
MGMthr 9,Montgomery Area,0,73,83,0,14,5331,2007-08-10,106,32.38015000000007,-86.30007999999998,AL,2022-01-01,-5.948966571247309,8.597199149363101,20220315
BRCN7thr 9,Bryson City Area,0,31,65,2,9,3544,2012-07-01,97,35.42470000000003,-83.44682999999998,NC,2022-02-12,-2.6385994676915034,10.573436977346924,20220315
BRDthr 9,Brainerd Area,0,166,83,0,87,31294,1936-07-10,106,46.35349000000008,-94.20068999999995,MN,2021-09-30,7.682395293239455,1.7086807692121295,20220315
SFOthr 9,San Francisco Airport Area,0,30,72,0,62,22189,1961-06-14,106,37.61882000000003,-122.37579999999997,CA,2022-02-13,1.7588302214717775,-19.960703108420102,20220315
SGFthr 9,Springfield Area,0,90,75,10,69,24716,1954-07-14,113,37.20897000000008,-93.29158999999999,MO,2021-12-15,-1.476505132110363,2.5997007244803165,20220315
GLSthr 9,Galveston Area,0,55,76,0,22,7861,2000-09-05,104,29.29532000000006,-94.80790999999994,TX,2022-01-19,-9.418901460159654,1.5038217389552988,20220315
GNVthr 9,Gainesville Area,0,76,82,2,71,25463,1952-06-27,104,29.651950000000056,-82.32277999999997,FL,2021-12-29,-8.229607395392508,12.30494836192267,20220315
MGWthr 9,Morgantown Area,0,89,70,56,131,46952,1893-08-26,105,39.63053000000008,-79.95770999999996,WV,2021-12-16,1.9681801710086892,12.646303513837303,20220315
MHEthr 9,Mitchell Area,0,104,66,1,83,29819,1940-07-24,116,43.70214000000004,-98.02867999999995,SD,2021-12-01,5.048433330672427,-0.9965306741522348,20220315
BRLthr 9,Burlington Area,0,81,66,15,87,31290,1936-07-14,111,40.812050000000056,-91.10072999999994,IA,2021-12-24,2.224290658991458,4.1389060821377806,20220315
SHRthr 9,Sheridan Area,0,103,77,0,0,273,2021-06-15,107,44.79792000000003,-106.95586999999995,WY,2021-12-02,6.570871061058248,-7.279162108415831,20220315
SHVthr 9,Shreveport Area,0,73,82,3,115,41117,1909-08-18,110,32.51487000000003,-93.74688999999995,LA,2022-01-01,-6.205063950903057,2.352885883045916,20220315
GPTthr 9,Gulfport Area,0,73,78,3,76,27251,1947-08-05,104,30.38032000000004,-89.09188999999998,MS,2022-01-01,-8.138758829392891,6.40697146846136,20220315
GRBthr 9,Green Bay Area,0,42,42,0,87,31291,1936-07-13,104,44.513000000000034,-88.01000999999997,WI,2022-02-01,6.080323014858924,6.140386843807842,20220315
MHSthr 9,Mount Shasta Area,0,30,67,0,41,14830,1981-08-07,105,41.40932000000004,-122.19500999999997,CA,2022-02-13,5.393540797076428,-18.783226509231696,20220315
MHTthr 9,Manchester Area,0,89,57,1,10,3889,2011-07-22,103,42.99120000000005,-71.46309999999994,NH,2021-12-16,6.601345786280466,18.113918708910138,20220315
BROthr 9,Brownsville Area,0,68,86,2,38,13867,1984-03-27,106,25.902090000000044,-97.49923999999999,TX,2022-01-06,-12.728643788003032,-0.8975771337973857,20220315
BRWthr 9,Barrow Area,0,85,32,2,29,10472,1993-07-13,79,71.28884000000005,-156.79225999999997,AK,2021-12-20,-7.036117762365621,-17.546597891900323,20220315
SJCthr 9,San Jose Area,0,30,79,0,119,42620,1905-07-07,108,37.33865000000003,-121.88541999999995,CA,2022-02-13,1.3820605830560972,-19.666602889622926,20220315
SJTthr 9,San Angelo Area,0,78,79,11,90,32385,1933-07-15,111,31.461830000000077,-100.44255999999996,TX,2021-12-27,-7.190545975243867,-3.3096066656107066,20220315
GRIthr 9,Grand Island Area,0,81,64,6,87,31280,1936-07-24,117,40.92474000000004,-98.33989999999994,NE,2021-12-24,2.264738178778616,-1.2893284135598218,20220315
GRRthr 9,Grand Rapids Area,0,89,63,10,87,31291,1936-07-13,108,42.96642000000003,-85.67194999999998,MI,2021-12-16,4.702647523538075,7.964135885590436,20220315
MIAthr 9,Miami Area,0,138,90,1,81,29092,1942-07-21,100,25.77481000000006,-80.19772999999998,FL,2021-10-28,-11.697477742769765,14.767717627410482,20220315
MKEthr 9,Milwaukee Area,0,89,68,3,89,32011,1934-07-24,105,43.042230000000075,-87.90689999999995,WI,2021-12-16,4.621524867893669,6.33906479244229,20220315
SJUthr 9,San Juan Area,0,60,89,33,41,14767,1981-10-09,98,18.466330000000028,-66.10472999999996,PR,2022-01-14,-12.296,20.011,20220315
SLCthr 9,Salt Lake City Area,0,67,58,0,0,273,2021-06-15,107,40.76031000000006,-111.88821999999999,UT,2022-01-07,3.0714949310698567,-11.41324366198646,20220315
BTLthr 9,Battle Creek Area,0,89,61,10,87,31290,1936-07-14,104,42.31648000000007,-85.18000999999998,MI,2021-12-16,4.094467955731483,8.394168305975564,20220315
BTRthr 9,Baton Rouge Area,0,73,84,11,115,41116,1909-08-19,110,30.443350000000066,-91.18663999999995,LA,2022-01-01,-8.18635491952221,4.603482186240989,20220315
GSOthr 9,Greensboro Area,0,73,77,2,110,39358,1914-06-12,104,36.06908000000004,-79.79502999999994,NC,2022-01-01,-1.554014402557882,13.378780976091551,20220315
GSPthr 9,Greenville-Spartanburg Area,0,73,75,0,9,3544,2012-07-01,107,34.9376858547003,-82.02572361101242,SC,2022-01-01,-2.9644982530424304,11.782058829045683,20220315
MKGthr 9,Muskegon Area,0,89,62,3,9,3539,2012-07-06,99,43.23425000000003,-86.24481999999995,MI,2021-12-16,4.925759450797201,7.5220236274570444,20220315
MLBthr 9,Melbourne Area,0,73,84,2,42,15219,1980-07-14,102,28.079440000000034,-80.60755999999998,FL,2022-01-01,-9.536372889868487,14.030831784015762,20220315
BTTthr 9,Bettles Area,0,85,34,3,36,13036,1986-07-06,93,66.91766000000007,-151.52186999999998,AK,2021-12-20,-8.532447513059815,-16.883832896890567,20220315
BTVthr 9,Burlington Area,0,88,60,1,79,28340,1944-08-11,101,44.47593000000006,-73.21276999999998,VT,2021-12-17,7.727162737341289,16.526448251025318,20220315
SLEthr 9,Salem Area,0,31,65,0,0,260,2021-06-28,117,44.933260000000075,-123.04380999999995,OR,2022-02-12,8.939070220356605,-18.395983052381695,20220315
SLKthr 9,Saranac Lake Area,0,89,58,6,91,32401,1933-06-29,101,44.32484000000005,-74.13178999999997,NY,2021-12-16,7.430022449347894,15.924904235542066,20220315
GTFthr 9,Great Falls Area,0,103,60,0,90,32375,1933-07-25,107,47.50732000000005,-111.30606999999998,MT,2021-12-02,9.63286270658767,-9.89722858059344,20220315
GWOthr 9,Greenwood Area,0,73,84,0,14,5326,2007-08-15,106,33.51711000000006,-90.18038999999999,MS,2022-01-01,-5.076916107792569,5.278948863389278,20220315
MLIthr 9,Moline Area,0,89,63,0,87,31290,1936-07-14,111,41.49177000000003,-90.49036999999998,IL,2021-12-16,2.9327497866644268,4.556578343944471,20220315
MLTthr 9,Millinocket Area,0,207,91,1,117,41909,1907-06-18,101,45.654930000000036,-68.70904999999993,ME,2021-08-20,9.671065091434302,19.286574748517232,20220315
BUFthr 9,Buffalo Area,0,89,64,1,75,26863,1948-08-27,99,42.885440000000074,-78.87845999999996,NY,2021-12-16,5.331305732525565,12.869500104909058,20220315
BURthr 9,Burbank Glendale Pasadena Area,0,30,88,1,3,1348,2018-07-06,114,34.210208214253235,-118.2158534442944,CA,2022-02-13,-2.411210522338555,-17.600633634732436,20220315
SLNI1thr 9,Salmon Area,0,100,57,18,87,31283,1936-07-21,106,45.17673000000008,-113.89678999999995,ID,2021-12-05,7.678051889770588,-12.066827142911489,20220315
SLNthr 9,Salina Area,0,90,76,15,87,31260,1936-08-13,118,38.84054000000003,-97.60969999999998,KS,2021-12-15,0.15095696049398297,-0.777942754762876,20220315
HBGthr 9,Hattiesburg Area,0,73,81,60,60,21459,1963-06-14,106,31.327350000000024,-89.29070999999999,MS,2022-01-01,-7.212103176493017,6.169227085051384,20220315
HGRthr 9,Hagerstown Area,0,89,65,4,23,8271,1999-07-23,107,39.64250000000004,-77.71757999999994,MD,2021-12-16,2.286785848147024,14.325429576061655,20220315
MLUthr 9,Monroe Area,0,73,83,10,106,37853,1918-07-26,109,32.50983000000008,-92.11878999999999,LA,2022-01-01,-6.166305820826197,3.717592197523415,20220315
MMTN7thr 9,Mount Mitchell Area,0,72,56,16,99,35319,1925-07-03,87,35.76484000000005,-82.26511999999997,NC,2022-01-02,-2.1678116893641852,11.46935648458929,20220315
BVLA4thr 9,Booneville Area,0,80,76,5,87,31263,1936-08-10,118,35.14026000000007,-93.92309999999998,AR,2021-12-25,-3.5743607996069886,2.1473809015875,20220315
BWIthr 9,Baltimore Area,0,94,70,2,87,31294,1936-07-10,107,39.290580000000034,-76.60925999999995,MD,2021-12-11,2.1055179288508987,15.226379616031819,20220315
SMTC1thr 9,Sacramento Downtown Area,0,30,78,0,99,35305,1925-07-17,114,38.57902000000007,-121.49994999999996,CA,2022-02-13,2.508067290152296,-19.04208324851306,20220315
SMXthr 9,Santa Maria Area,0,33,82,4,14,5016,2008-06-20,110,34.953130000000044,-120.43452999999994,CA,2022-02-10,-1.2451264046618966,-19.176204981439763,20220315
HIBthr 9,Hibbing Area,0,89,41,11,34,12284,1988-07-27,98,47.42105000000004,-92.94173999999998,MN,2021-12-16,8.755960371956348,2.545308988541261,20220315
HIOthr 9,Hillsboro Area,0,31,63,0,0,260,2021-06-28,114,45.52268000000004,-122.99043999999998,OR,2022-02-12,9.487542905055914,-18.194508527272482,20220315
MMVthr 9,McMinnville Area,0,31,65,0,0,260,2021-06-28,114,45.20920000000007,-123.19912999999997,OR,2022-02-12,9.23128303916761,-18.423352772939502,20220315
MOBthr 9,Mobile Area,0,73,79,0,22,7868,2000-08-29,105,30.686480000000074,-88.05296999999996,AL,2022-01-01,-7.766780030235908,7.2732097020980095,20220315
SNPthr 9,St Paul Island Area,0,78,41,1,1,578,2020-08-14,66,57.12342000000007,-170.27491999999998,AK,2021-12-27,-11.549993961795007,-20.27939588787525,20220315
SNTthr 9,Stanley Area,0,103,56,1,59,21059,1964-07-18,96,44.21717000000007,-114.93643999999995,ID,2021-12-02,6.88300876565899,-12.975668251379833,20220315
BYIthr 9,Burley Area,0,101,59,1,89,32007,1934-07-28,107,42.53530000000006,-113.79328999999996,ID,2021-12-04,5.075635951406479,-12.488723437343953,20220315
CAES1thr 9,Caesars Head Area,0,76,68,5,71,25431,1952-07-29,99,35.11614000000003,-82.64562999999998,SC,2021-12-29,-2.8586199168933546,11.25815202598858,20220315
HJOthr 9,Hanford Area,0,31,81,15,90,32373,1933-07-27,116,36.32743000000005,-119.64588999999995,CA,2022-02-12,-0.06161378174915879,-18.21422314886483,20220315
HLGthr 9,Wheeling Area,0,89,65,4,89,32013,1934-07-22,106,40.06398000000007,-80.72140999999993,WV,2021-12-16,2.3041825581006004,12.001457982606826,20220315
MPOthr 9,Mount Pocono Area,0,88,56,4,113,40433,1911-07-03,103,41.12203000000005,-75.36462999999998,PA,2021-12-17,4.106384575798511,15.761416948853482,20220315
MQEthr 9,Milton Area,0,258,95,2,47,17027,1975-08-02,101,42.256170000000054,-71.07685999999995,MA,2021-06-30,5.963177063867004,18.577133416571197,20220315
SPIthr 9,Springfield Area,0,89,66,9,69,24716,1954-07-14,112,39.801300000000026,-89.64359999999994,IL,2021-12-16,1.2719749762132755,5.298672532919168,20220315
SPSthr 9,Wichita Falls Area,0,56,79,0,42,15235,1980-06-28,117,33.908300000000054,-98.50098999999994,TX,2022-01-18,-4.804273781066059,-1.5962939378603909,20220315
CAEthr 9,Columbia Area,0,73,80,1,9,3546,2012-06-29,109,33.99882000000002,-81.04536999999993,SC,2022-01-01,-3.7770096345996502,12.718041780933207,20220315
CAKthr 9,Akron Area,0,94,64,2,106,37842,1918-08-06,104,41.08431000000007,-81.51430999999997,OH,2021-12-11,3.2265970586794217,11.251210931105733,20220315
HLNthr 9,Helena Area,0,103,64,0,20,7186,2002-07-12,105,46.58976000000007,-112.02064999999999,MT,2021-12-02,8.822975318045843,-10.529649734122138,20220315
HNLthr 9,Honolulu Area,0,110,87,2,2,927,2019-08-31,95,21.30493000000007,-157.85787999999997,HI,2021-11-25,-10.701554896265012,-9.719623509724187,20220315
MQTthr 9,Marquette County Area,0,89,51,1,60,21443,1963-06-30,99,46.431252845000074,-87.64159341999994,MI,2021-12-16,7.999026878794347,6.2329943285991645,20220315
MRBthr 9,Martinsburg Area,0,80,69,4,87,31293,1936-07-11,112,39.45641000000006,-77.96476999999999,WV,2021-12-25,2.0666635815543573,14.175712287137683,20220315
SPWthr 9,Spencer Area,0,63,50,1,87,31287,1936-07-17,113,43.14187000000004,-95.14469999999994,IA,2022-01-11,4.474664761146183,1.084500852825491,20220315
SRQthr 9,Sarasota-Bradenton Area,0,209,96,4,51,18498,1971-07-23,101,27.45078600000005,-82.57504299999994,FL,2021-08-18,-10.405861858873013,12.397204402404183,20220315
CAOthr 9,Clayton Area,0,100,75,5,100,35690,1924-06-27,105,36.452090000000055,-103.18328999999994,NM,2021-12-05,-2.0546503146816777,-5.254365057728411,20220315
CARthr 9,Caribou Area,0,153,77,1,45,16368,1977-05-22,96,46.859290000000044,-68.01123999999999,ME,2021-10-13,10.940084758928496,19.40526918877264,20220315
HOMthr 9,Homer Area,0,53,47,4,29,10475,1993-07-10,81,59.64656000000008,-151.54421999999997,AK,2022-01-21,-11.042221620518195,-16.792687840614878,20220315
HONthr 9,Huron Area,0,106,64,10,57,20337,1966-07-10,112,44.36385000000007,-98.21413999999999,SD,2021-11-29,5.712366682805326,-1.114535153085592,20220315
MSLthr 9,Muscle Shoals Area,0,73,79,2,110,39344,1914-06-26,108,34.74243000000007,-87.66770999999994,AL,2022-01-01,-3.6962684606756495,7.24533485812125,20220315
MSNthr 9,Madison Area,0,89,63,0,87,31290,1936-07-14,107,43.07313000000005,-89.38643999999994,WI,2021-12-16,4.5695692493543,5.2647358224477365,20220315
STCthr 9,Saint Cloud Area,0,81,44,1,87,31291,1936-07-13,107,45.56586000000004,-94.19751999999994,MN,2021-12-24,6.902355747954609,1.7257904306607206,20220315
STLthr 9,St Louis Area,0,81,73,0,69,24716,1954-07-14,115,38.62775000000005,-90.19955999999996,MO,2021-12-24,0.062478459457609575,4.948597607019298,20220315
CDBthr 9,Cold Bay Area,0,28,48,0,75,26868,1948-08-22,78,55.20762000000008,-162.72000999999997,AK,2022-02-15,-12.462979149373655,-18.961332787446036,20220315
CDSthr 9,Childress Area,0,79,85,5,10,3915,2011-06-26,117,34.42937000000006,-100.21080999999998,TX,2021-12-26,-4.231745006831394,-2.9806599965771547,20220315
HROthr 9,Harrison Area,0,79,74,9,87,31286,1936-07-18,112,36.22863000000007,-93.11002999999994,AR,2021-12-26,-2.4609810606645115,2.772933776449649,20220315
HSEthr 9,Cape Hatteras Area,0,71,75,3,71,25463,1952-06-27,97,35.22462000000007,-75.53014999999994,NC,2022-01-03,-1.7314987489101619,16.912777713137075,20220315
MSOthr 9,Missoula Area,0,36,51,0,15,5366,2007-07-06,107,46.872780000000034,-113.99624999999997,MT,2022-02-07,9.335844557816184,-11.816902164603976,20220315
MSPthr 9,Minneapolis-St Paul Area,0,90,58,23,87,31290,1936-07-14,108,44.872070000000065,-93.19663999999995,MN,2021-12-15,6.2297735899037106,2.4468900713172133,20220315
SUXthr 9,Sioux City Area,0,56,62,9,87,31300,1936-07-04,111,42.499900000000025,-96.42085999999995,IA,2022-01-18,3.8285107549381663,0.15542519113949338,20220315
SWOthr 9,Stillwater Area,0,77,72,0,87,31262,1936-08-11,115,36.11665000000005,-97.05862999999994,OK,2021-12-28,-2.604260978503033,-0.38351654701438975,20220315
CECthr 9,Crescent City Area,0,33,68,34,105,37432,1919-09-20,97,41.75281000000007,-124.20045999999996,CA,2022-02-10,6.141964529885911,-20.113654687672934,20220315
CHAthr 9,Chattanooga Area,0,73,78,0,9,3545,2012-06-30,107,35.04672000000005,-85.30946999999998,TN,2022-01-01,-3.2002453375690045,9.123043430308012,20220315
HSIthr 9,Hastings Area,0,56,66,27,87,31280,1936-07-24,116,40.585680000000025,-98.39242999999999,NE,2022-01-18,1.9240948530083413,-1.3372828893651,20220315
HSVthr 9,Huntsville Area,0,73,79,0,94,33467,1930-07-29,111,34.72929000000005,-86.58509999999995,AL,2022-01-01,-3.6273431939059826,8.125056704968681,20220315
MSYthr 9,New Orleans Area,0,65,82,2,42,15180,1980-08-22,102,29.953700000000026,-90.07774999999998,LA,2022-01-09,-8.617249994096715,5.58660309894255,20220315
MTHthr 9,Marathon Area,0,89,84,1,51,18168,1972-06-17,99,24.72747000000004,-81.04281999999995,FL,2021-12-16,-12.817794467525466,14.171540681547768,20220315
SYRthr 9,Syracuse Area,0,89,67,2,87,31295,1936-07-09,102,43.05042000000003,-76.14737999999994,NY,2021-12-16,5.875546754443918,14.787112770643802,20220315
TAHC1thr 9,Tahoe City Area,0,32,53,7,90,32354,1933-08-15,94,39.17195000000004,-120.13976999999994,CA,2022-02-11,2.815325749563462,-17.8743308481213,20220315
CHOthr 9,Charlottesville Area,0,80,74,23,87,31294,1936-07-10,107,38.03213000000005,-78.47755999999998,VA,2021-12-25,0.5804385342738411,14.05396775633986,20220315
CHSthr 9,Charleston Area,0,74,78,2,23,8262,1999-08-01,105,32.781150000000025,-79.93159999999995,SC,2021-12-31,-4.833598159634986,13.828575909793662,20220315
HTLthr 9,Houghton Lake Area,0,89,61,10,90,32064,1934-06-01,107,44.308970000000045,-84.75913999999995,MI,2021-12-16,6.110519544921309,8.464959465255111,20220315
HTSthr 9,Huntington Area,0,89,70,2,94,33468,1930-07-28,108,38.42031000000003,-82.44550999999996,WV,2021-12-16,0.4647448496478964,10.944740826067797,20220315
MWTthr 9,Mount Ida Area,0,77,76,36,87,31263,1936-08-10,116,34.556760000000054,-93.63407999999998,AR,2021-12-28,-4.155786890093863,2.396275621690271,20220315
MYLthr 9,McCall Area,0,61,43,4,96,34185,1928-08-10,104,44.91100000000006,-116.09813999999994,ID,2022-01-13,7.7253342232334905,-13.642202856551105,20220315
CIDthr 9,Cedar Rapids Area,0,90,73,0,113,40430,1911-07-06,110,41.97646000000003,-91.67345999999998,IA,2021-12-15,3.3744065990795966,3.656186875076311,20220315
CKBthr 9,Clarksburg Area,0,124,78,2,94,33475,1930-07-21,102,39.27944000000008,-80.34016999999994,WV,2021-11-11,1.5703141704358992,12.416658588451021,20220315
TKAthr 9,Talkeetna Area,0,330,64,2,8,3193,2013-06-17,96,62.321920000000034,-150.10483999999997,AK,2021-04-19,-10.108058096941054,-16.59444242643933,20220315
TLHthr 9,Tallahassee Area,0,72,83,0,11,3926,2011-06-15,105,30.439770000000067,-84.28064999999998,FL,2022-01-02,-7.678778829064625,10.522214340447311,20220315
HVRthr 9,Havre Area,0,36,63,18,62,22137,1961-08-05,111,48.55297000000007,-109.67165999999997,MT,2022-02-07,10.477104181244858,-8.65033396893311,20220315
HYRthr 9,Hayward Area,0,89,59,15,87,31292,1936-07-12,108,46.01418000000007,-91.48271999999997,WI,2021-12-16,7.4090101542062055,3.604340260758573,20220315
NAKthr 9,Annapolis Area,0,94,69,2,106,37842,1918-08-06,106,38.976780000000076,-76.49013999999994,MD,2021-12-11,1.8140857337037855,15.380372447913702,20220315
NBRN4thr 9,New Brunswick Area,0,93,67,2,123,44086,1901-07-02,106,40.494770000000074,-74.44383999999997,NJ,2021-12-12,3.642515435408672,16.574787240338615,20220315
TOLthr 9,Toledo Area,0,341,79,3,87,31290,1936-07-14,105,41.65381000000008,-83.53625999999997,OH,2021-04-08,3.5814670383262746,9.67975837449966,20220315
TOPthr 9,Topeka Area,0,81,74,7,87,31280,1936-07-24,114,39.04928000000007,-95.67117999999994,KS,2021-12-24,0.3516353260689957,0.716666154701047,20220315
CLEthr 9,Cleveland Area,0,94,64,2,34,12316,1988-06-25,104,41.50473000000005,-81.69073999999995,OH,2021-12-11,3.6249703058102556,11.057262122216871,20220315
CLLthr 9,College Station Area,0,73,83,22,22,7862,2000-09-04,112,30.620540000000062,-96.32589999999999,TX,2022-01-01,-8.113889577869065,0.1839385530382519,20220315
IADthr 9,Sterling-Dulles Airport Area,0,141,80,2,10,3889,2011-07-22,105,39.03162000000003,-77.40695999999997,VA,2021-10-25,1.727884934198881,14.677827756143621,20220315
IAHthr 9,Houston Area,0,73,85,0,10,3853,2011-08-27,109,29.760780000000068,-95.36951999999997,TX,2022-01-01,-8.964039590049081,1.0107475068035707,20220315
NCBN6thr 9,Newcomb Area,0,88,58,5,79,28384,1944-06-28,95,43.96530000000007,-74.12316999999996,NY,2021-12-17,7.083001421645499,16.01319347543678,20220315
NYCthr 9,New York-Central Park Area,0,94,66,4,87,31295,1936-07-09,106,40.78392000000008,-73.96583999999996,NY,2021-12-11,4.007460053345891,16.858681247166484,20220315
CLTthr 9,Charlotte Area,0,73,78,2,9,3546,2012-06-29,104,35.222860000000026,-80.83795999999995,NC,2022-01-01,-2.533605675209445,12.690533699690809,20220315
CMAthr 9,Camarillo Area,0,31,89,1,6,2349,2015-10-09,108,34.22340000000003,-119.05071999999996,CA,2022-02-12,-2.2368452886301022,-18.263181621239838,20220315
TPAthr 9,Tampa Area,0,40,85,1,37,13432,1985-06-05,99,27.946530000000052,-82.45926999999995,FL,2022-02-03,-9.910564647018532,12.429337685821642,20220315
TRIthr 9,Bristol-Johnson City Area,0,73,78,2,9,3545,2012-06-30,103,36.29376002414793,-82.40800993629173,TN,2022-01-01,-1.6561796162533637,11.279564178125328,20220315
ICHL1thr 9,Natchitoches Area,0,72,83,0,22,7865,2000-09-01,110,31.760950000000037,-93.08697999999998,LA,2022-01-02,-6.942497354571151,2.929261051219915,20220315
ICTthr 9,Wichita Area,0,79,69,8,87,31261,1936-08-12,114,37.687490000000025,-97.33557999999994,KS,2021-12-26,-1.0164931626954485,-0.5828698446590345,20220315
OFKthr 9,Norfolk Area,0,56,62,6,87,31287,1936-07-17,116,42.032710000000066,-97.41105999999996,NE,2022-01-18,3.3661218644606272,-0.5769265826892012,20220315
OGGthr 9,Kahului Area,0,44,86,1,2,960,2019-07-29,97,20.891020000000026,-156.46726999999998,HI,2022-01-30,-11.106202935493231,-8.414138134532422,20220315
CMHthr 9,Columbus Area,0,152,86,2,87,31290,1936-07-14,106,39.96199000000007,-83.00274999999993,OH,2021-10-14,1.946050123650384,10.304427219417729,20220315
CNKthr 9,Concordia Area,0,90,76,15,87,31261,1936-08-12,116,39.57127000000003,-97.65746999999999,KS,2021-12-15,0.889163418391479,-0.8019231693759609,20220315
TTNthr 9,Trenton Area,0,94,66,4,87,31295,1936-07-09,106,40.21788000000004,-74.75939999999997,NJ,2021-12-11,3.317604532397248,16.404819685192468,20220315
TULthr 9,Tulsa Area,0,90,78,51,87,31263,1936-08-10,115,36.15011000000004,-95.99351999999999,OK,2021-12-15,-2.575236497300344,0.4689240249085115,20220315
IGMthr 9,Kingman Area,0,223,107,1,4,1729,2017-06-20,113,35.18888000000004,-114.05598999999995,AZ,2021-08-04,-2.160123107326554,-14.077375841895421,20220315
ILGthr 9,Wilmington Area,0,88,62,2,106,37841,1918-08-07,107,39.740230000000054,-75.55083999999994,DE,2021-12-17,2.717218345984505,15.923131766192403,20220315
OKCthr 9,Oklahoma City Area,0,90,77,9,9,3511,2012-08-03,113,35.472030000000075,-97.52106999999995,OK,2021-12-15,-3.24882088361088,-0.7640060670212359,20220315
OLMthr 9,Olympia Area,0,62,61,0,0,260,2021-06-28,110,47.03956000000005,-122.89165999999994,WA,2022-01-12,10.898701376352797,-17.705558861160018,20220315
CONthr 9,Concord Area,0,31,53,4,57,20344,1966-07-03,102,43.207250000000045,-71.53659999999996,NH,2022-02-12,6.796438188858611,18.006927437671813,20220315
COSthr 9,Colorado Springs Area,0,67,68,0,5,2093,2016-06-21,101,38.83352000000008,-104.82180999999997,CO,2022-01-07,0.44898011195619636,-6.332401222389391,20220315
TUPthr 9,Tupelo Area,0,73,81,0,94,33467,1930-07-29,109,34.25741000000005,-88.70782999999994,MS,2022-01-01,-4.252026632576893,6.438046091423248,20220315
TUSthr 9,Tucson Area,0,82,80,0,32,11585,1990-06-26,117,32.22177000000005,-110.96976999999998,AZ,2021-12-23,-5.535510472038746,-12.083395987850771,20220315
ILMthr 9,Wilmington Area,0,76,80,2,71,25463,1952-06-27,104,34.23497000000003,-77.94599999999997,NC,2021-12-29,-3.103935546460881,15.184877646395597,20220315
ILNthr 9,Wilmington Area,0,78,67,40,89,32014,1934-07-21,111,39.44713000000007,-83.82843999999994,OH,2021-12-27,1.3481008669174015,9.749173688882108,20220315
OMAthr 9,Omaha Area,0,90,74,0,87,31279,1936-07-25,114,41.260680000000036,-95.94025999999997,NE,2021-12-15,2.5815894036677083,0.5082892892829521,20220315
OMEthr 9,Nome Area,0,223,79,8,8,3191,2013-06-19,86,64.49947000000003,-165.40582999999998,AK,2021-08-04,-9.228341252604402,-18.934096067384683,20220315
TVRthr 9,Tallulah-Vicksburg Area,0,73,85,0,22,7866,2000-08-31,106,32.353350000000034,-91.02460999999994,LA,2022-01-01,-6.280019674418977,4.642396100533947,20220315
TYRthr 9,Tyler Area,0,77,78,10,10,3878,2011-08-02,110,32.34763000000004,-95.29429999999996,TX,2021-12-28,-6.39227711272268,1.0567408451021156,20220315
COUthr 9,Columbia Area,0,81,74,9,69,24718,1954-07-12,113,38.95252000000005,-92.33414999999997,MO,2021-12-24,0.30794996937431623,3.286560453960699,20220315
CPRthr 9,Casper Area,0,103,66,0,69,24718,1954-07-12,104,42.85008000000005,-106.32779,WY,2021-12-02,4.586691138508769,-7.0491572165767185,20220315
OMKthr 9,Omak Area,0,104,74,0,0,259,2021-06-29,117,48.410780000000045,-119.52723999999995,WA,2021-12-01,11.600834753587655,-15.14891920161915,20220315
ONOthr 9,Ontario Area,0,145,79,6,56,19970,1967-07-12,113,44.025690000000054,-116.96585999999996,OR,2021-10-21,6.996811091286953,-14.435729684047,20220315
CQTthr 9,Los Angeles Downtown Area,1,423,88,11,11,4187,2010-09-27,113,34.04834000000005,-118.25563999999997,CA,2021-01-16,-2.562164237191024,-17.670239956896324,20220315
CREthr 9,Myrtle Beach Area,0,79,77,2,71,25464,1952-06-26,104,33.69373000000007,-78.88231999999994,SC,2021-12-26,-3.7805085272565466,14.527592593568142,20220315
OQTthr 9,Oak Ridge Area,0,73,75,2,9,3545,2012-06-30,105,36.014680000000055,-84.25575999999995,TN,2022-01-01,-2.131524000245313,9.852021646850089,20220315
