station,name,years_since_daily,days_since_daily,days_since_val,years_since_monthly,years_since_alltime,latitude,longitude,state_abbr,days_since_daily_date
55Nthr 9,Atlantic City Marina Area,0,23,63,15,106,39.36287000000004,-74.42636999999996,NJ,2022-02-12
8D3thr 9,Sisseton Area,0,73,56,10,90,45.66019000000006,-97.04127999999997,SD,2021-12-24
CRPthr 9,Corpus Christi Area,0,65,92,0,22,27.796410000000037,-97.40373999999997,TX,2022-01-01
CRWthr 9,Charleston Area,0,81,72,4,93,38.35016000000007,-81.63894999999997,WV,2021-12-16
ILMthr 9,Wilmington Area,0,68,80,2,71,34.23497000000003,-77.94599999999997,NC,2021-12-29
ILNthr 9,Wilmington Area,0,70,67,40,89,39.44713000000007,-83.82843999999994,OH,2021-12-27
OMKthr 9,Omak Area,0,96,74,0,0,48.410780000000045,-119.52723999999995,WA,2021-12-01
ONOthr 9,Ontario Area,0,137,79,6,56,44.025690000000054,-116.96585999999996,OR,2021-10-21
INDthr 9,Indianapolis Area,0,86,66,2,87,39.76691000000005,-86.15011999999996,IN,2021-12-11
INLthr 9,International Falls Area,0,160,84,1,101,48.60260000000005,-93.40364999999997,MN,2021-09-28
AATthr 9,Alturas Area,0,24,66,0,20,41.49432000000007,-120.54260999999997,CA,2022-02-11
ABEthr 9,Allentown Area,0,81,61,2,57,40.60263000000003,-75.47026999999997,PA,2021-12-16
TRIthr 9,Bristol-Johnson City Area,0,65,78,2,9,36.29376002414793,-82.40800993629173,TN,2022-01-01
TTNthr 9,Trenton Area,0,86,66,4,87,40.21788000000004,-74.75939999999997,NJ,2021-12-11
CSGthr 9,Columbus Area,0,65,82,2,9,32.46288000000004,-84.98756999999995,GA,2022-01-01
CUSM6thr 9,Columbus Area,0,67,81,2,99,33.495070000000055,-88.42854999999997,MS,2021-12-30
INWthr 9,Winslow Area,0,121,80,0,0,35.02426000000003,-110.69623999999999,AZ,2021-11-06
IPLthr 9,El Centro Area,0,215,119,0,4,32.79616000000004,-115.56996999999996,CA,2021-08-04
OQTthr 9,Oak Ridge Area,0,65,75,2,9,36.014680000000055,-84.25575999999995,TN,2022-01-01
ABIthr 9,Abilene Area,0,70,81,0,80,32.44917000000004,-99.74141999999995,TX,2021-12-27
ABQthr 9,Albuquerque Area,0,94,65,28,28,35.08423000000005,-106.64904999999999,NM,2021-12-03
IPTthr 9,Williamsport Area,0,81,65,5,87,41.24094000000008,-77.00140999999996,PA,2021-12-16
ISNthr 9,Williston Area,0,152,92,10,87,48.14704000000006,-103.62186999999994,ND,2021-10-06
TTPthr 9,Pohnpei Area,0,45,90,2,12,6.9640000000000555,158.20560000000012,FM,2022-01-21
TULthr 9,Tulsa Area,0,82,78,51,87,36.15011000000004,-95.99351999999999,OK,2021-12-15
CVGthr 9,Cincinnati Area,0,72,69,2,89,39.162000000000035,-84.45688999999999,OH,2021-12-25
CXMthr 9,Charleston Downtown Area,0,71,77,2,37,32.781150000000025,-79.93159999999995,SC,2021-12-26
ISPthr 9,Islip Area,0,23,62,2,57,40.728170000000034,-73.21799999999996,NY,2022-02-12
ITOthr 9,Hilo Area,0,301,85,1,57,19.71924000000007,-155.08184999999997,HI,2021-05-10
ORDthr 9,Chicago Area,0,81,66,34,89,41.884250000000065,-87.63244999999995,IL,2021-12-16
ORFthr 9,Norfolk Area,0,65,76,6,11,36.84686000000005,-76.28513999999996,VA,2022-01-01
ABRthr 9,Aberdeen Area,0,96,65,10,87,45.45909000000006,-98.48690999999997,SD,2021-12-01
ABYthr 9,Albany Area,0,64,86,0,42,31.58140000000003,-84.15601999999996,GA,2022-01-02
JANthr 9,Jackson Area,0,65,85,0,93,32.29887000000008,-90.18044999999995,MS,2022-01-01
JAXthr 9,Jacksonville Area,0,31,84,1,24,30.331470000000024,-81.65621999999996,FL,2022-02-04
TUPthr 9,Tupelo Area,0,65,81,0,93,34.25741000000005,-88.70782999999994,MS,2022-01-01
TUSthr 9,Tucson Area,0,74,80,0,32,32.22177000000005,-110.96976999999998,AZ,2021-12-23
CYSthr 9,Cheyenne Area,0,93,65,0,69,41.13481000000007,-104.82153999999997,WY,2021-12-04
DABthr 9,Daytona Beach Area,0,64,82,6,79,29.20357000000007,-81.03939999999994,FL,2022-01-02
JBRthr 9,Jonesboro Area,0,72,75,2,123,35.83525000000003,-90.70506999999998,AR,2021-12-25
JEFthr 9,Jefferson City Area,0,73,76,9,123,38.577510000000075,-92.17783999999995,MO,2021-12-24
ORHthr 9,Worcester Area,0,80,60,4,113,42.26341000000008,-71.80218999999994,MA,2021-12-17
OSPA3thr 9,Oracle Area,0,119,83,0,0,32.61047000000008,-110.76717999999994,AZ,2021-11-08
JERthr 9,Jerome Area,0,179,95,19,83,42.72412000000003,-114.51580999999999,ID,2021-09-09
JFKthr 9,New York-Kennedy Airport Area,0,23,61,2,57,40.667731323816156,-73.7713740736271,NY,2022-02-12
ACTthr 9,Waco Area,0,67,82,3,3,31.57182000000006,-97.14949999999999,TX,2021-12-30
ACYthr 9,Atlantic City Area,0,23,64,2,54,39.36287000000004,-74.42636999999996,NJ,2022-02-12
TVRthr 9,Tallulah-Vicksburg Area,0,65,85,0,22,32.353350000000034,-91.02460999999994,LA,2022-01-01
TYAthr 9,Yap Area,1,382,90,5,72,9.538000000000068,138.0970000000001,FM,2021-02-18
DALthr 9,Dallas Area,0,72,81,3,42,32.77822000000003,-96.79511999999994,TX,2021-12-25
DANthr 9,Danville Area,0,65,79,20,106,36.58598000000006,-79.41719999999998,VA,2022-01-01
JKLthr 9,Jackson Area,0,65,72,2,9,37.558100000000024,-83.37800999999996,KY,2022-01-01
JNUthr 9,Juneau Area,0,322,65,19,47,58.29973000000007,-134.40678999999994,AK,2021-04-19
OSWN6thr 9,Oswego Area,0,80,64,2,20,43.45646000000005,-76.51118999999994,NY,2021-12-17
OTZthr 9,Kotzebue Area,0,78,35,0,8,66.89675000000005,-162.58589999999998,AK,2021-12-19
ADQthr 9,Kodiak Area,0,69,56,0,70,57.79517000000004,-152.39468999999997,AK,2021-12-28
AFLI1thr 9,American Falls Area,0,93,57,10,99,42.78397000000007,-112.85483999999997,ID,2021-12-04
JSTN6thr 9,Jamestown Area,0,80,61,5,34,42.09605000000005,-79.23779999999994,NY,2021-12-17
KMRthr 9,Majuro Area,0,50,88,0,14,7.089710000000025,171.3802700000001,MH,2022-01-16
TYRthr 9,Tyler Area,0,69,78,10,10,32.34763000000004,-95.29429999999996,TX,2021-12-28
TYSthr 9,Knoxville Area,0,65,77,0,9,35.960680000000025,-83.92102999999997,TN,2022-01-01
DAYthr 9,Dayton Area,0,70,66,1,123,39.75920000000008,-84.19380999999998,OH,2021-12-27
DBQthr 9,Dubuque Area,0,82,69,0,87,42.49913000000004,-90.66326999999995,IA,2021-12-15
P68thr 9,Eureka Area,0,93,58,1,37,39.51542000000006,-115.96210999999994,NV,2021-12-04
PAHthr 9,Paducah Area,0,69,71,2,9,37.08571000000006,-88.59584999999998,KY,2021-12-28
KWAthr 9,Kwajalein Area,0,135,90,65,65,8.71959000000004,167.73445000000004,MH,2021-10-23
LALthr 9,Lakeland Area,0,31,86,0,37,28.04419000000007,-81.94785999999993,FL,2022-02-04
AGSthr 9,Augusta Area,0,65,82,1,14,33.47929000000005,-81.97521999999998,GA,2022-01-01
AGYthr 9,Skagway Area,0,323,69,3,4,59.46031000000005,-135.30852999999996,AK,2021-04-18
UILthr 9,Quillayute Area,0,39,58,3,41,47.94313000000005,-124.54242999999997,WA,2022-01-27
UINthr 9,Quincy Area,0,73,69,0,87,39.93559000000005,-91.39582999999999,IL,2021-12-24
LANthr 9,Lansing Area,0,81,63,9,9,42.731940000000066,-84.55224999999996,MI,2021-12-16
LASthr 9,Las Vegas Area,0,96,75,0,4,36.17193000000003,-115.14000999999996,NV,2021-12-01
DCAthr 9,Washington Area,0,80,65,2,94,38.890370000000075,-77.03195999999997,DC,2021-12-17
DDCthr 9,Dodge City Area,0,71,75,5,9,37.75267000000008,-100.01890999999995,KS,2021-12-26
PBFthr 9,Pine Bluff Area,0,65,80,14,80,34.22353000000004,-92.00339999999994,AR,2022-01-01
PBGthr 9,Plattsburgh Area,0,80,61,5,47,44.699130000000025,-73.45302999999996,NY,2021-12-17
LAWthr 9,Lawton Area,0,53,76,4,87,34.605180000000075,-98.38991999999996,OK,2022-01-13
LAXthr 9,Los Angeles Airport Area,0,22,85,19,59,33.94251000000003,-118.40896999999995,CA,2022-02-13
AHNthr 9,Athens Area,0,65,77,2,9,33.95816000000008,-83.37311999999997,GA,2022-01-01
AKIS1thr 9,Aiken Area,1,493,88,2,39,33.56164000000007,-81.72213999999997,SC,2020-10-30
UKIthr 9,Ukiah Area,0,22,79,0,68,39.15093000000007,-123.2079,CA,2022-02-13
UNRS2thr 9,Rapid City Downtown Area,0,95,74,9,69,44.08146000000005,-103.23079999999999,SD,2021-12-02
LBBthr 9,Lubbock Area,0,71,80,1,28,33.58451000000008,-101.84500999999995,TX,2021-12-26
LBFthr 9,North Platte Area,0,82,69,1,69,41.13632000000007,-100.76332999999994,NE,2021-12-15
DENthr 9,Denver Area,0,95,72,1,9,39.74001000000004,-104.99201999999997,CO,2021-12-02
DEQthr 9,Dequeen Area,0,69,79,16,87,34.036740000000066,-94.33944999999994,AR,2021-12-28
PBIthr 9,West Palm Beach Area,0,179,94,15,81,26.71440000000007,-80.05328999999995,FL,2021-09-09
PDTthr 9,Pendleton Area,0,25,69,0,126,45.671790000000044,-118.78639999999996,OR,2022-02-10
AKNthr 9,King Salmon Area,1,564,75,2,2,58.69707000000005,-156.70210999999998,AK,2020-08-20
ALBthr 9,Albany Area,0,81,61,5,113,42.65155000000004,-73.75520999999998,NY,2021-12-16
LBTthr 9,Lumberton Area,0,65,81,2,98,34.61898000000008,-79.01397999999995,NC,2022-01-01
LCHthr 9,Lake Charles Area,0,57,79,22,22,30.224030000000027,-93.22010999999998,LA,2022-01-09
VCTthr 9,Victoria Area,0,65,86,8,22,28.805940000000078,-97.00356999999997,TX,2022-01-01
VRBthr 9,Vero Beach Area,0,65,85,1,13,27.638850000000048,-80.39395999999994,FL,2022-01-01
LEEthr 9,Leesburg Area,0,64,85,1,31,28.811100000000067,-81.87727999999998,FL,2022-01-02
LEXthr 9,Lexington Area,0,69,67,2,87,38.04859000000005,-84.50031999999999,KY,2021-12-28
DERM8thr 9,Deer Lodge Area,0,94,59,0,123,46.397530000000074,-112.73531999999994,MT,2021-12-03
DFWthr 9,Dallas-Fort Worth Area,0,52,79,4,42,32.85568000000006,-97.03801999999996,TX,2022-01-14
PDXthr 9,Portland Area,0,22,63,0,0,45.511790000000076,-122.67562999999996,OR,2022-02-13
ALOthr 9,Waterloo Area,0,82,74,0,87,42.49329000000006,-92.34193999999997,IA,2021-12-15
ALSthr 9,Alamosa Area,0,53,53,1,33,37.468180000000075,-105.87324999999998,CO,2022-01-13
LGAthr 9,New York-LGA Area,0,64,60,2,57,40.71455000000003,-74.00713999999994,NY,2022-01-02
LGBthr 9,Long Beach Area,0,115,95,3,11,33.76672000000008,-118.19239999999996,CA,2021-11-12
LHUthr 9,Lake Havasu City Area,0,22,84,0,28,34.47440000000006,-114.34631999999999,AZ,2022-02-13
LIHthr 9,Lihue Area,0,220,88,2,2,21.975050000000067,-159.36907999999997,HI,2021-07-30
VTNthr 9,Valentine Area,0,104,77,1,32,42.87384000000003,-100.55061999999998,NE,2021-11-23
VUOthr 9,Vancouver Area,0,23,65,0,0,45.632480000000044,-122.67155999999994,WA,2022-02-12
DLHthr 9,Duluth Area,0,82,49,1,87,46.787960000000055,-92.09984999999995,MN,2021-12-15
PGDthr 9,Punta Gorda Area,0,85,87,1,71,26.932950000000062,-82.05288999999993,FL,2021-12-12
PGWO3thr 9,Portland Downtown Area,0,22,63,0,0,45.52019000000007,-122.67993999999999,OR,2022-02-13
AMAthr 9,Amarillo Area,0,71,75,1,10,35.207250000000045,-101.83388999999994,TX,2021-12-26
ANCthr 9,Anchorage Area,0,44,44,2,2,61.21753000000007,-149.85824999999997,AK,2022-01-22
LITthr 9,Little Rock Area,0,69,74,6,10,34.74870000000004,-92.27484999999996,AR,2021-12-28
LLJthr 9,Challis Area,0,95,63,0,20,44.50485000000003,-114.23681999999997,ID,2021-12-02
WALthr 9,Wallops Island Area,0,23,66,2,9,37.844040000000064,-75.47910999999993,VA,2022-02-12
DRTthr 9,Del Rio Area,0,53,82,1,34,29.366510000000062,-100.89829999999995,TX,2022-01-13
DSMthr 9,Des Moines Area,0,82,74,0,87,41.58981000000006,-93.61537999999996,IA,2021-12-15
LMTthr 9,Klamath Falls Area,0,22,66,0,50,42.223880000000065,-121.78205999999994,OR,2022-02-13
LNDthr 9,Lander Area,0,93,64,0,88,42.83309000000003,-108.73093999999998,WY,2021-12-04
PHDthr 9,New Philadelphia Area,0,116,71,2,34,40.48976000000005,-81.44638999999995,OH,2021-11-11
PHLthr 9,Philadelphia Area,0,86,68,20,106,39.95222000000007,-75.16217999999998,PA,2021-12-11
ANJthr 9,Sault Ste Marie Area,0,34,42,1,103,46.49231000000003,-84.35171999999994,MI,2022-02-01
LNKthr 9,Lincoln Area,0,73,65,22,87,40.81362000000007,-96.70729999999998,NE,2021-12-24
LOXthr 9,Oxnard Area,0,23,90,4,5,34.20034000000004,-119.18011999999999,CA,2022-02-12
WJFthr 9,Lancaster Area,0,96,76,1,8,34.698930000000075,-118.14477999999997,CA,2021-12-01
WMCthr 9,Winnemucca Area,0,179,101,1,20,40.97327000000007,-117.73518999999999,NV,2021-09-09
DTWthr 9,Detroit Area,1,362,70,10,89,42.33168000000006,-83.04799999999994,MI,2021-03-10
DWRI1thr 9,Dworshak Area,0,251,112,0,89,46.488355037983666,-116.25076488882804,ID,2021-06-29
PHXthr 9,Phoenix Area,0,95,84,1,32,33.44825000000003,-112.07579999999996,AZ,2021-12-02
PIAthr 9,Peoria Area,0,81,66,15,87,40.692360000000065,-89.58798999999999,IL,2021-12-16
LRDthr 9,Laredo Area,0,65,94,11,97,27.530920000000037,-99.50222999999994,TX,2022-01-01
LSEthr 9,La Crosse Area,0,82,69,0,27,43.812670000000026,-91.25205999999997,WI,2021-12-15
APNthr 9,Alpena Area,0,81,60,10,87,45.06156000000004,-83.44514999999996,MI,2021-12-16
ASTthr 9,Astoria Area,0,253,101,0,0,46.18977000000007,-123.83394999999996,OR,2021-06-27
LWSthr 9,Lewiston Area,0,95,61,0,84,46.41873000000004,-117.01704999999998,ID,2021-12-02
LYHthr 9,Lynchburg Area,0,65,74,20,87,37.41420000000005,-79.14299999999997,VA,2022-01-01
YAKthr 9,Yakutat Area,0,233,77,2,18,59.549240000000054,-139.73210999999998,AK,2021-07-17
YKMthr 9,Yakima Area,0,25,70,0,0,46.60448000000008,-120.50720999999999,WA,2022-02-10
EAUthr 9,Eau Claire Area,0,81,53,20,87,44.816580000000044,-91.50076999999999,WI,2021-12-16
ECGthr 9,Elizabeth City Area,0,65,77,2,81,36.30150000000003,-76.21975999999995,NC,2022-01-01
PICS1thr 9,Pickens Area,0,70,75,2,29,34.88370000000003,-82.70750999999996,SC,2021-12-27
PIHthr 9,Pocatello Area,0,93,57,1,22,42.874970000000076,-112.45055999999994,ID,2021-12-04
ASXthr 9,Ashland Area,0,81,55,1,89,46.58540000000005,-90.88628999999997,WI,2021-12-16
MAEthr 9,Madera Area,0,21,76,7,62,36.96205000000003,-120.06398999999999,CA,2022-02-14
MAFthr 9,Midland-Odessa Area,0,70,79,2,28,31.833842173884822,-102.35695776993573,TX,2021-12-27
MBGthr 9,Mobridge Area,0,96,71,0,16,45.537420000000054,-100.44034999999997,SD,2021-12-01
MBSthr 9,Saginaw Area,0,81,62,10,87,43.41940000000005,-83.94651999999996,MI,2021-12-16
YNGthr 9,Youngstown Area,0,81,61,2,87,41.098100000000045,-80.65078999999997,OH,2021-12-16
YUMthr 9,Yuma Area,0,93,83,18,27,32.68549000000007,-114.62460999999996,AZ,2021-12-04
PITthr 9,Pittsburgh Area,0,81,64,4,34,40.438510000000065,-79.99733999999995,PA,2021-12-16
PKBthr 9,Parkersburg Area,0,81,67,2,93,39.263720000000035,-81.55856999999997,WV,2021-12-16
EEDthr 9,Needles Area,0,24,84,1,4,34.83854000000008,-114.60446999999999,CA,2022-02-11
EKAthr 9,Eureka Area,0,25,71,4,4,40.803270000000055,-124.15952999999996,CA,2022-02-10
ATLthr 9,Atlanta Area,0,64,73,2,9,33.74831000000006,-84.39110999999997,GA,2022-01-02
ATTthr 9,Austin Area,0,66,83,3,10,30.26759000000004,-97.74298999999996,TX,2021-12-31
MCEthr 9,Merced Area,0,22,80,1,99,37.30152000000004,-120.48689999999999,CA,2022-02-13
MCGthr 9,Mcgrath Area,0,216,88,7,8,62.94383000000005,-155.56586999999996,AK,2021-08-03
ZZVthr 9,Zanesville Area,1,482,78,2,87,39.940540000000055,-82.00138999999996,OH,2020-11-10
PMDthr 9,Palmdale Area,0,96,76,1,32,34.579360000000065,-118.11658999999997,CA,2021-12-01
PNSthr 9,Pensacola Area,0,64,78,2,42,30.420840000000055,-87.21722999999997,FL,2022-01-02
EKNthr 9,Elkins Area,0,81,71,2,34,38.92402000000004,-79.84448999999995,WV,2021-12-16
EKOthr 9,Elko Area,0,179,97,1,41,40.835680000000025,-115.76753999999994,NV,2021-09-09
MCIthr 9,Kansas City Area,0,73,72,9,87,39.103440000000035,-94.58310999999998,MO,2021-12-24
MCKthr 9,McCook Area,0,95,78,7,9,40.198600000000056,-100.62565999999998,NE,2021-12-02
AUSthr 9,Austin-Bergstrom Airport Area,0,66,83,3,22,30.202150000000074,-97.66712999999999,TX,2021-12-31
AUWthr 9,Wausau Area,0,73,42,22,87,44.95953000000003,-89.63030999999995,WI,2021-12-24
ELJC1thr 9,El Cajon Area,0,22,88,1,1,32.79495000000003,-116.95902999999998,CA,2022-02-13
ELPthr 9,El Paso Area,0,52,71,6,28,31.759160000000065,-106.48748999999998,TX,2022-01-14
MCNthr 9,Macon Area,0,65,82,0,9,32.83994000000007,-83.62801999999994,GA,2022-01-01
MCOthr 9,Orlando Area,0,228,97,24,103,28.538230000000055,-81.37738999999993,FL,2021-07-22
POFthr 9,Poplar Bluff Area,0,69,70,61,123,36.756980000000055,-90.39326999999997,MO,2021-12-28
POUthr 9,Poughkeepsie Area,0,81,64,4,90,41.70712000000003,-73.92914999999994,NY,2021-12-16
ELYthr 9,Ely Area,0,95,64,1,20,39.24705000000006,-114.89482999999996,NV,2021-12-02
ERIthr 9,Erie Area,0,81,65,2,34,42.12982000000005,-80.08549999999997,PA,2021-12-16
MDHthr 9,Carbondale Area,0,72,74,9,93,37.72730000000007,-89.21579999999994,IL,2021-12-25
MDTthr 9,Middletown-Harrisburg Area,0,80,60,4,57,40.25986000000006,-76.88222999999994,PA,2021-12-17
AVLthr 9,Asheville Area,0,72,71,2,39,35.59868000000006,-82.55339999999995,NC,2021-12-25
AVPthr 9,Avoca Area,0,80,61,4,87,41.33588000000003,-75.74325999999996,PA,2021-12-17
ESCC1thr 9,Escondido Area,0,23,90,1,1,33.12354000000005,-117.08233999999999,CA,2022-02-12
EUGthr 9,Eugene Area,0,22,66,0,0,44.04992000000004,-123.08853999999997,OR,2022-02-13
MEIthr 9,Meridian Area,0,65,82,2,42,32.365080000000034,-88.70307999999994,MS,2022-01-01
MEMthr 9,Memphis Area,0,65,79,0,42,35.14976000000007,-90.04924999999997,TN,2022-01-01
PSCthr 9,Tri-Cities Area,0,25,69,0,0,46.245400000000075,-119.19616999999994,WA,2022-02-10
PSPthr 9,Palm Springs Area,0,24,93,0,0,33.823210000000074,-116.51195999999999,CA,2022-02-11
EVVthr 9,Evansville Area,0,72,72,2,93,37.97708000000006,-87.56404999999995,IN,2021-12-25
EWNthr 9,New Bern Area,0,65,80,2,71,35.10847000000007,-77.04150999999996,NC,2022-01-01
AZOthr 9,Kalamazoo Area,0,81,62,3,87,42.291570000000036,-85.58838999999995,MI,2021-12-16
BAFthr 9,Westfield Area,0,23,56,1,11,42.120220000000074,-72.75414999999998,MA,2022-02-12
MFDthr 9,Mansfield Area,0,86,63,2,89,40.75854000000004,-82.51523999999995,OH,2021-12-11
MFEthr 9,McAllen Area,0,65,92,4,4,26.207700000000045,-98.22930999999994,TX,2022-01-01
EWRthr 9,Newark Area,0,81,65,0,10,40.73197000000005,-74.17420999999996,NJ,2021-12-16
EYWthr 9,Key West Area,0,298,90,2,67,24.554500000000075,-81.80022999999994,FL,2021-05-13
MFRthr 9,Medford Area,0,23,71,0,0,42.32356000000004,-122.87561,OR,2022-02-12
MGMthr 9,Montgomery Area,0,65,83,0,14,32.38015000000007,-86.30007999999998,AL,2022-01-01
PTDN6thr 9,Fredonia Area,0,80,64,5,87,42.44029000000006,-79.33185999999995,NY,2021-12-17
PUBthr 9,Pueblo Area,0,95,74,1,19,38.26375000000007,-104.61251999999996,CO,2021-12-02
FAIthr 9,Fairbanks Area,0,70,40,13,105,64.84525000000008,-147.72209999999998,AK,2021-12-27
FARthr 9,Fargo Area,0,160,90,6,87,46.87591000000003,-96.78175999999996,ND,2021-09-28
BDLthr 9,Hartford Area,0,23,59,4,10,41.76375000000007,-72.67393999999996,CT,2022-02-12
BDRthr 9,Bridgeport Area,0,23,60,2,10,41.18213000000003,-73.19063999999997,CT,2022-02-12
MGWthr 9,Morgantown Area,0,81,70,56,131,39.63053000000008,-79.95770999999996,WV,2021-12-16
MHEthr 9,Mitchell Area,0,96,66,1,83,43.70214000000004,-98.02867999999995,SD,2021-12-01
FATthr 9,Fresno Area,0,22,81,7,119,36.740950000000055,-119.78535999999997,CA,2022-02-13
FAYthr 9,Fayetteville Area,0,65,81,0,91,35.05534000000006,-78.87726999999995,NC,2022-01-01
PUWthr 9,Pullman Area,0,25,57,0,62,46.73015000000004,-117.18146999999999,WA,2022-02-10
PVDthr 9,Providence Area,0,23,63,2,47,41.823870000000056,-71.41198999999995,RI,2022-02-12
MHSthr 9,Mount Shasta Area,0,22,67,0,41,41.40932000000004,-122.19500999999997,CA,2022-02-13
MHTthr 9,Manchester Area,0,81,57,1,10,42.99120000000005,-71.46309999999994,NH,2021-12-16
FCAthr 9,Kalispell Area,0,25,56,0,62,48.20189000000005,-114.31499999999994,MT,2022-02-10
FLGthr 9,Flagstaff Area,0,240,96,15,49,35.19820000000004,-111.65129999999999,AZ,2021-07-10
BELN4thr 9,Belvidere Area,0,85,64,4,87,40.82567000000006,-75.07896999999997,NJ,2021-12-12
BETthr 9,Bethel Area,0,232,78,2,98,60.794340000000034,-161.76091999999997,AK,2021-07-18
MIAthr 9,Miami Area,0,130,90,1,81,25.77481000000006,-80.19772999999998,FL,2021-10-28
MKEthr 9,Milwaukee Area,0,81,68,3,89,43.042230000000075,-87.90689999999995,WI,2021-12-16
FLLthr 9,Fort Lauderdale Area,0,316,93,7,13,26.123880000000042,-80.14356999999995,FL,2021-04-25
FMYthr 9,Fort Myers Area,0,56,87,5,41,26.640840000000026,-81.86792999999994,FL,2022-01-10
PWMthr 9,Portland Area,0,23,54,4,113,43.65915000000007,-70.25667999999996,ME,2022-02-12
RALthr 9,Riverside Area,0,23,88,1,107,33.98171000000008,-117.37403999999998,CA,2022-02-12
MKGthr 9,Muskegon Area,0,81,62,3,9,43.23425000000003,-86.24481999999995,MI,2021-12-16
MLBthr 9,Melbourne Area,0,65,84,2,42,28.079440000000034,-80.60755999999998,FL,2022-01-01
FNTthr 9,Flint Area,0,81,63,6,87,43.01144000000005,-83.68678999999997,MI,2021-12-16
FPRthr 9,Fort Pierce Area,0,66,85,24,73,27.449040000000025,-80.32677999999999,FL,2021-12-31
BFFthr 9,Scottsbluff Area,0,95,77,0,84,41.862190000000055,-103.66273999999999,NE,2021-12-02
BFLthr 9,Bakersfield Area,0,21,80,10,116,35.36730000000006,-119.01885999999996,CA,2022-02-14
FSDthr 9,Sioux Falls Area,0,48,52,1,34,43.54577000000006,-96.73127999999997,SD,2022-01-18
FSMthr 9,Fort Smith Area,0,69,74,4,10,35.384700000000066,-94.42144999999994,AR,2021-12-28
MLIthr 9,Moline Area,0,81,63,0,87,41.49177000000003,-90.49036999999998,IL,2021-12-16
MLTthr 9,Millinocket Area,0,199,91,1,117,45.654930000000036,-68.70904999999993,ME,2021-08-20
RAPthr 9,Rapid City Area,0,95,75,0,16,44.08146000000005,-103.23079999999999,SD,2021-12-02
RDDthr 9,Redding Area,0,24,85,0,34,40.587600000000066,-122.39254999999997,CA,2022-02-11
BGDthr 9,Borger Area,0,20,78,0,1,35.667950000000076,-101.39042999999998,TX,2022-02-15
BGMthr 9,Binghamton Area,0,81,60,5,34,42.09871000000004,-75.91118999999998,NY,2021-12-16
FWAthr 9,Fort Wayne Area,0,334,81,3,34,41.08026000000007,-85.13830999999999,IN,2021-04-07
GEDthr 9,Georgetown Area,0,64,68,2,10,38.690720000000056,-75.38673999999997,DE,2022-01-02
MLUthr 9,Monroe Area,0,65,83,10,106,32.50983000000008,-92.11878999999999,LA,2022-01-01
MMTN7thr 9,Mount Mitchell Area,0,64,56,16,99,35.76484000000005,-82.26511999999997,NC,2022-01-02
GEGthr 9,Spokane Area,0,96,59,0,0,47.657260000000065,-117.41227999999995,WA,2021-12-01
GFKthr 9,Grand Forks Area,0,159,88,22,87,47.924330000000054,-97.03172999999998,ND,2021-09-29
MMVthr 9,McMinnville Area,0,23,65,0,0,45.20920000000007,-123.19912999999997,OR,2022-02-12
MOBthr 9,Mobile Area,0,65,79,0,22,30.686480000000074,-88.05296999999996,AL,2022-01-01
RDGthr 9,Reading Area,0,81,62,4,10,40.33662000000004,-75.92783999999995,PA,2021-12-16
RDUthr 9,Raleigh Area,0,65,79,2,9,35.78547000000003,-78.64269999999993,NC,2022-01-01
BGRthr 9,Bangor Area,0,85,60,10,88,44.80171000000007,-68.77076999999997,ME,2021-12-12
BHMthr 9,Birmingham Area,0,65,80,2,93,33.52072000000004,-86.81178999999997,AL,2022-01-01
GFLthr 9,Glens Falls Area,0,80,60,5,113,43.31122000000005,-73.64375999999999,NY,2021-12-17
GGGthr 9,Longview Area,0,66,80,16,87,32.50064000000003,-94.74060999999995,TX,2021-12-31
MPOthr 9,Mount Pocono Area,0,80,56,4,113,41.12203000000005,-75.36462999999998,PA,2021-12-17
MQEthr 9,Milton Area,0,250,95,2,47,42.256170000000054,-71.07685999999995,MA,2021-06-30
RFDthr 9,Rockford Area,0,73,55,5,87,42.26690000000008,-89.07739999999995,IL,2021-12-24
RHIthr 9,Rhinelander Area,0,81,51,10,87,45.63839000000007,-89.41130999999996,WI,2021-12-16
GGWthr 9,Glasgow Area,0,28,58,0,124,48.19512000000003,-106.63688999999994,MT,2022-02-07
GIFthr 9,Winter Haven Area,0,31,86,2,78,28.022320000000036,-81.73294999999996,FL,2022-02-04
MQTthr 9,Marquette County Area,0,81,51,1,60,46.431252845000074,-87.64159341999994,MI,2021-12-16
MRBthr 9,Martinsburg Area,0,72,69,4,87,39.45641000000006,-77.96476999999999,WV,2021-12-25
BIGthr 9,Delta Junction Area,0,69,42,13,54,64.04668000000004,-145.73623999999998,AK,2021-12-28
BIHthr 9,Bishop Area,0,24,77,0,0,37.36680000000007,-118.39534999999995,CA,2022-02-11
GJTthr 9,Grand Junction Area,0,83,59,0,0,39.068790000000035,-108.56444999999997,CO,2021-12-14
GKNthr 9,Gulkana Area,0,42,40,3,109,62.269850000000076,-145.38026999999997,AK,2022-01-24
MSLthr 9,Muscle Shoals Area,0,65,79,2,110,34.74243000000007,-87.66770999999994,AL,2022-01-01
MSNthr 9,Madison Area,0,81,63,0,87,43.07313000000005,-89.38643999999994,WI,2021-12-16
RICthr 9,Richmond Area,0,64,72,20,106,37.540680000000066,-77.43366999999995,VA,2022-01-02
RNKthr 9,Blacksburg Area,0,64,70,1,98,37.226530000000025,-80.41089999999997,VA,2022-01-02
GLDthr 9,Goodland Area,0,83,66,5,83,39.36573000000004,-101.71196999999995,KS,2021-12-14
GLHthr 9,Greenville Area,0,65,82,2,93,33.398960000000045,-91.03777999999994,MS,2022-01-01
MSOthr 9,Missoula Area,0,28,51,0,15,46.872780000000034,-113.99624999999997,MT,2022-02-07
MSPthr 9,Minneapolis-St Paul Area,0,82,58,23,87,44.872070000000065,-93.19663999999995,MN,2021-12-15
BILthr 9,Billings Area,0,83,56,0,20,45.784260000000074,-108.50606999999997,MT,2021-12-14
BISthr 9,Bismarck Area,0,96,66,0,87,46.805360000000064,-100.77968999999996,ND,2021-12-01
GLSthr 9,Galveston Area,0,47,76,0,22,29.29532000000006,-94.80790999999994,TX,2022-01-19
GNVthr 9,Gainesville Area,0,68,82,2,71,29.651950000000056,-82.32277999999997,FL,2021-12-29
MSYthr 9,New Orleans Area,0,57,82,2,42,29.953700000000026,-90.07774999999998,LA,2022-01-09
MTHthr 9,Marathon Area,0,81,84,1,51,24.72747000000004,-81.04281999999995,FL,2021-12-16
RNMthr 9,Ramona Area,0,23,85,1,3,33.04195000000004,-116.86871999999994,CA,2022-02-12
RNOthr 9,Reno Area,0,53,64,1,15,39.527660000000026,-119.81352999999996,NV,2022-01-13
BIVthr 9,Holland Area,0,81,66,3,9,42.77358000000004,-86.10225999999994,MI,2021-12-16
BKEthr 9,Baker City Area,0,179,93,0,3,44.77400000000006,-117.82988999999998,OR,2021-09-09
GPTthr 9,Gulfport Area,0,65,78,3,76,30.38032000000004,-89.09188999999998,MS,2022-01-01
GRBthr 9,Green Bay Area,0,34,42,0,87,44.513000000000034,-88.01000999999997,WI,2022-02-01
MWTthr 9,Mount Ida Area,0,69,76,36,87,34.556760000000054,-93.63407999999998,AR,2021-12-28
MYLthr 9,McCall Area,0,53,43,4,96,44.91100000000006,-116.09813999999994,ID,2022-01-13
GRIthr 9,Grand Island Area,0,73,64,6,87,40.92474000000004,-98.33989999999994,NE,2021-12-24
GRRthr 9,Grand Rapids Area,0,81,63,10,87,42.96642000000003,-85.67194999999998,MI,2021-12-16
NAKthr 9,Annapolis Area,0,86,69,2,106,38.976780000000076,-76.49013999999994,MD,2021-12-11
NBRN4thr 9,New Brunswick Area,0,85,67,2,123,40.494770000000074,-74.44383999999997,NJ,2021-12-12
ROAthr 9,Roanoke Area,0,72,69,4,87,37.271520000000066,-79.94056999999998,VA,2021-12-25
ROCthr 9,Rochester Area,0,81,65,25,87,43.155800000000056,-77.61631999999997,NY,2021-12-16
BKVthr 9,Brooksville Area,0,66,85,1,97,28.554650000000038,-82.38781999999998,FL,2021-12-31
BKWthr 9,Beckley Area,0,81,67,1,98,37.77792000000005,-81.18785999999994,WV,2021-12-16
NCBN6thr 9,Newcomb Area,0,80,58,5,79,43.96530000000007,-74.12316999999996,NY,2021-12-17
NYCthr 9,New York-Central Park Area,0,86,66,4,87,40.78392000000008,-73.96583999999996,NY,2021-12-11
GSNthr 9,Saipan Area,0,24,88,4,11,15.207560000000058,145.72108000000003,MP,2022-02-11
GSOthr 9,Greensboro Area,0,65,77,2,110,36.06908000000004,-79.79502999999994,NC,2022-01-01
OFKthr 9,Norfolk Area,0,48,62,6,87,42.032710000000066,-97.41105999999996,NE,2022-01-18
OGGthr 9,Kahului Area,0,36,86,1,2,20.891020000000026,-156.46726999999998,HI,2022-01-30
GSPthr 9,Greenville-Spartanburg Area,0,65,75,0,9,34.9376858547003,-82.02572361101242,SC,2022-01-01
GTFthr 9,Great Falls Area,0,95,60,0,90,47.50732000000005,-111.30606999999998,MT,2021-12-02
ROWthr 9,Roswell Area,0,52,76,1,28,33.39509000000004,-104.52274999999997,NM,2022-01-14
RSTthr 9,Rochester Area,0,73,41,4,87,44.01932000000005,-92.45932999999997,MN,2021-12-24
BLFthr 9,Bluefield Area,1,709,81,9,71,37.26798000000008,-81.22261999999995,WV,2020-03-28
BNAthr 9,Nashville Area,0,65,78,0,9,36.16784000000007,-86.77815999999996,TN,2022-01-01
OKCthr 9,Oklahoma City Area,0,82,77,9,9,35.472030000000075,-97.52106999999995,OK,2021-12-15
OLMthr 9,Olympia Area,0,54,61,0,0,47.03956000000005,-122.89165999999994,WA,2022-01-12
GUMthr 9,Guam Area,0,263,92,5,32,13.443563908000044,144.77762780500007,GU,2021-06-17
GWOthr 9,Greenwood Area,0,65,84,0,14,33.51711000000006,-90.18038999999999,MS,2022-01-01
RUEthr 9,Russellville Area,0,69,76,9,10,35.27829000000003,-93.13480999999996,AR,2021-12-28
SACthr 9,Sacramento Area,0,22,76,1,62,38.579440000000034,-121.49084999999997,CA,2022-02-13
OMAthr 9,Omaha Area,0,82,74,0,87,41.260680000000036,-95.94025999999997,NE,2021-12-15
OMEthr 9,Nome Area,0,215,79,8,8,64.49947000000003,-165.40582999999998,AK,2021-08-04
HBGthr 9,Hattiesburg Area,0,65,81,60,60,31.327350000000024,-89.29070999999999,MS,2022-01-01
HGRthr 9,Hagerstown Area,0,81,65,4,23,39.64250000000004,-77.71757999999994,MD,2021-12-16
BNOthr 9,Burns Area,0,25,62,0,20,43.586040000000025,-119.05464999999998,OR,2022-02-10
BOIthr 9,Boise Area,0,179,98,6,126,43.60764000000006,-116.19339999999994,ID,2021-09-09
HIBthr 9,Hibbing Area,0,81,41,11,34,47.42105000000004,-92.94173999999998,MN,2021-12-16
HIOthr 9,Hillsboro Area,0,23,63,0,0,45.52268000000004,-122.99043999999998,OR,2022-02-12
SANthr 9,San Diego Area,0,23,91,0,59,32.71568000000008,-117.16170999999997,CA,2022-02-12
SATthr 9,San Antonio Area,0,66,83,1,22,29.42458000000005,-98.49460999999997,TX,2021-12-31
HJOthr 9,Hanford Area,0,23,81,15,90,36.32743000000005,-119.64588999999995,CA,2022-02-12
HLGthr 9,Wheeling Area,0,81,65,4,89,40.06398000000007,-80.72140999999993,WV,2021-12-16
BOSthr 9,Boston Area,0,23,60,2,113,42.35866000000004,-71.05673999999993,MA,2022-02-12
BPTthr 9,Beaumont-Port Arthur Area,0,65,81,22,122,29.877653959074355,-93.93985584337597,TX,2022-01-01
HLNthr 9,Helena Area,0,95,64,0,20,46.58976000000007,-112.02064999999999,MT,2021-12-02
HNLthr 9,Honolulu Area,0,102,87,2,2,21.30493000000007,-157.85787999999997,HI,2021-11-25
HOMthr 9,Homer Area,0,45,47,4,29,59.64656000000008,-151.54421999999997,AK,2022-01-21
HONthr 9,Huron Area,0,98,64,10,57,44.36385000000007,-98.21413999999999,SD,2021-11-29
SAVthr 9,Savannah Area,0,64,83,2,36,32.080910000000074,-81.09118999999998,GA,2022-01-02
SBNthr 9,South Bend Area,0,82,64,10,89,41.679070000000024,-86.25404999999995,IN,2021-12-15
HROthr 9,Harrison Area,0,71,74,9,87,36.22863000000007,-93.11002999999994,AR,2021-12-26
HSEthr 9,Cape Hatteras Area,0,63,75,3,71,35.22462000000007,-75.53014999999994,NC,2022-01-03
BRCN7thr 9,Bryson City Area,0,23,65,2,9,35.42470000000003,-83.44682999999998,NC,2022-02-12
BRDthr 9,Brainerd Area,0,158,83,0,87,46.35349000000008,-94.20068999999995,MN,2021-09-30
HSIthr 9,Hastings Area,0,48,66,27,87,40.585680000000025,-98.39242999999999,NE,2022-01-18
HSVthr 9,Huntsville Area,0,65,79,0,93,34.72929000000005,-86.58509999999995,AL,2022-01-01
HTLthr 9,Houghton Lake Area,0,81,61,10,90,44.308970000000045,-84.75913999999995,MI,2021-12-16
HTSthr 9,Huntington Area,0,81,70,2,93,38.42031000000003,-82.44550999999996,WV,2021-12-16
SBYthr 9,Salisbury Area,0,64,70,20,94,38.36573000000004,-75.59531999999996,MD,2022-01-02
SCKthr 9,Stockton Area,0,22,76,1,16,37.953730000000064,-121.29045999999994,CA,2022-02-13
HVRthr 9,Havre Area,0,28,63,18,62,48.55297000000007,-109.67165999999997,MT,2022-02-07
HYRthr 9,Hayward Area,0,81,59,15,87,46.01418000000007,-91.48271999999997,WI,2021-12-16
BRLthr 9,Burlington Area,0,73,66,15,87,40.812050000000056,-91.10072999999994,IA,2021-12-24
IADthr 9,Sterling-Dulles Airport Area,0,133,80,2,10,39.03162000000003,-77.40695999999997,VA,2021-10-25
IAHthr 9,Houston Area,0,65,85,0,10,29.760780000000068,-95.36951999999997,TX,2022-01-01
SDFthr 9,Louisville Area,0,69,70,2,87,38.254890000000046,-85.76665999999994,KY,2021-12-28
SEAthr 9,Seattle Tacoma Area,0,99,59,0,0,47.14524056244803,-122.50513620892333,WA,2021-11-28
BROthr 9,Brownsville Area,0,60,86,2,38,25.902090000000044,-97.49923999999999,TX,2022-01-06
BRWthr 9,Barrow Area,0,77,32,2,29,71.28884000000005,-156.79225999999997,AK,2021-12-20
ICHL1thr 9,Natchitoches Area,0,64,83,0,22,31.760950000000037,-93.08697999999998,LA,2022-01-02
ICTthr 9,Wichita Area,0,71,69,8,87,37.687490000000025,-97.33557999999994,KS,2021-12-26
IGMthr 9,Kingman Area,0,215,107,1,4,35.18888000000004,-114.05598999999995,AZ,2021-08-04
ILGthr 9,Wilmington Area,0,80,62,2,106,39.740230000000054,-75.55083999999994,DE,2021-12-17
SEWthr 9,Seattle City Area,0,206,93,0,0,47.620490000000075,-122.35102999999998,WA,2021-08-13
SFBthr 9,Sanford Area,0,65,85,1,24,28.81397000000004,-81.26803999999998,FL,2022-01-01
BTLthr 9,Battle Creek Area,0,81,61,10,87,42.31648000000007,-85.18000999999998,MI,2021-12-16
BTRthr 9,Baton Rouge Area,0,65,84,11,115,30.443350000000066,-91.18663999999995,LA,2022-01-01
SFOthr 9,San Francisco Airport Area,0,22,72,0,62,37.61882000000003,-122.37579999999997,CA,2022-02-13
SGFthr 9,Springfield Area,0,82,75,10,69,37.20897000000008,-93.29158999999999,MO,2021-12-15
BTTthr 9,Bettles Area,0,77,34,3,36,66.91766000000007,-151.52186999999998,AK,2021-12-20
BTVthr 9,Burlington Area,0,80,60,1,79,44.47593000000006,-73.21276999999998,VT,2021-12-17
SHRthr 9,Sheridan Area,0,95,77,0,0,44.79792000000003,-106.95586999999995,WY,2021-12-02
SHVthr 9,Shreveport Area,0,65,82,3,115,32.51487000000003,-93.74688999999995,LA,2022-01-01
BUFthr 9,Buffalo Area,0,81,64,1,75,42.885440000000074,-78.87845999999996,NY,2021-12-16
BURthr 9,Burbank Glendale Pasadena Area,0,22,88,1,3,34.210208214253235,-118.2158534442944,CA,2022-02-13
SJCthr 9,San Jose Area,0,22,79,0,119,37.33865000000003,-121.88541999999995,CA,2022-02-13
SJTthr 9,San Angelo Area,0,70,79,11,90,31.461830000000077,-100.44255999999996,TX,2021-12-27
BVLA4thr 9,Booneville Area,0,72,76,5,87,35.14026000000007,-93.92309999999998,AR,2021-12-25
BWIthr 9,Baltimore Area,0,86,70,2,87,39.290580000000034,-76.60925999999995,MD,2021-12-11
SJUthr 9,San Juan Area,0,52,89,33,41,18.466330000000028,-66.10472999999996,PR,2022-01-14
SLCthr 9,Salt Lake City Area,0,59,58,0,0,40.76031000000006,-111.88821999999999,UT,2022-01-07
BYIthr 9,Burley Area,0,93,59,1,89,42.53530000000006,-113.79328999999996,ID,2021-12-04
CAES1thr 9,Caesars Head Area,0,68,68,5,71,35.11614000000003,-82.64562999999998,SC,2021-12-29
SLEthr 9,Salem Area,0,23,65,0,0,44.933260000000075,-123.04380999999995,OR,2022-02-12
SLKthr 9,Saranac Lake Area,0,81,58,6,90,44.32484000000005,-74.13178999999997,NY,2021-12-16
CAEthr 9,Columbia Area,0,65,80,1,9,33.99882000000002,-81.04536999999993,SC,2022-01-01
CAKthr 9,Akron Area,0,86,64,2,106,41.08431000000007,-81.51430999999997,OH,2021-12-11
SLNI1thr 9,Salmon Area,0,92,57,18,87,45.17673000000008,-113.89678999999995,ID,2021-12-05
SLNthr 9,Salina Area,0,82,76,15,87,38.84054000000003,-97.60969999999998,KS,2021-12-15
CAOthr 9,Clayton Area,0,92,75,5,100,36.452090000000055,-103.18328999999994,NM,2021-12-05
CARthr 9,Caribou Area,0,145,77,1,45,46.859290000000044,-68.01123999999999,ME,2021-10-13
SMTC1thr 9,Sacramento Downtown Area,0,22,78,0,99,38.57902000000007,-121.49994999999996,CA,2022-02-13
SMXthr 9,Santa Maria Area,0,25,82,4,14,34.953130000000044,-120.43452999999994,CA,2022-02-10
CDBthr 9,Cold Bay Area,0,20,48,0,75,55.20762000000008,-162.72000999999997,AK,2022-02-15
CDSthr 9,Childress Area,0,71,85,5,10,34.42937000000006,-100.21080999999998,TX,2021-12-26
SNPthr 9,St Paul Island Area,0,70,41,1,1,57.12342000000007,-170.27491999999998,AK,2021-12-27
SNTthr 9,Stanley Area,0,95,56,1,59,44.21717000000007,-114.93643999999995,ID,2021-12-02
CECthr 9,Crescent City Area,0,25,68,34,105,41.75281000000007,-124.20045999999996,CA,2022-02-10
CHAthr 9,Chattanooga Area,0,65,78,0,9,35.04672000000005,-85.30946999999998,TN,2022-01-01
SPIthr 9,Springfield Area,0,81,66,9,69,39.801300000000026,-89.64359999999994,IL,2021-12-16
SPSthr 9,Wichita Falls Area,0,48,79,0,42,33.908300000000054,-98.50098999999994,TX,2022-01-18
CHOthr 9,Charlottesville Area,0,72,74,23,87,38.03213000000005,-78.47755999999998,VA,2021-12-25
CHSthr 9,Charleston Area,0,66,78,2,23,32.781150000000025,-79.93159999999995,SC,2021-12-31
SPWthr 9,Spencer Area,0,55,50,1,87,43.14187000000004,-95.14469999999994,IA,2022-01-11
SRQthr 9,Sarasota-Bradenton Area,0,201,96,4,51,27.45078600000005,-82.57504299999994,FL,2021-08-18
CIDthr 9,Cedar Rapids Area,0,82,73,0,113,41.97646000000003,-91.67345999999998,IA,2021-12-15
CKBthr 9,Clarksburg Area,0,116,78,2,94,39.27944000000008,-80.34016999999994,WV,2021-11-11
STCthr 9,Saint Cloud Area,0,73,44,1,87,45.56586000000004,-94.19751999999994,MN,2021-12-24
STLthr 9,St Louis Area,0,73,73,0,69,38.62775000000005,-90.19955999999996,MO,2021-12-24
CLEthr 9,Cleveland Area,0,86,64,2,34,41.50473000000005,-81.69073999999995,OH,2021-12-11
CLLthr 9,College Station Area,0,65,83,22,22,30.620540000000062,-96.32589999999999,TX,2022-01-01
STUthr 9,Pago Pago Area,0,20,92,20,65,-14.272709999999961,-170.70348999999996,AS,2022-02-15
SUXthr 9,Sioux City Area,0,48,62,9,87,42.499900000000025,-96.42085999999995,IA,2022-01-18
CLTthr 9,Charlotte Area,0,65,78,2,9,35.222860000000026,-80.83795999999995,NC,2022-01-01
CMAthr 9,Camarillo Area,0,23,89,1,6,34.22340000000003,-119.05071999999996,CA,2022-02-12
SWOthr 9,Stillwater Area,0,69,72,0,87,36.11665000000005,-97.05862999999994,OK,2021-12-28
SYRthr 9,Syracuse Area,0,81,67,2,87,43.05042000000003,-76.14737999999994,NY,2021-12-16
CMHthr 9,Columbus Area,0,144,86,2,87,39.96199000000007,-83.00274999999993,OH,2021-10-14
CNKthr 9,Concordia Area,0,82,76,15,87,39.57127000000003,-97.65746999999999,KS,2021-12-15
TAHC1thr 9,Tahoe City Area,0,24,53,7,90,39.17195000000004,-120.13976999999994,CA,2022-02-11
TKAthr 9,Talkeetna Area,0,322,64,2,8,62.321920000000034,-150.10483999999997,AK,2021-04-19
CONthr 9,Concord Area,0,23,53,4,57,43.207250000000045,-71.53659999999996,NH,2022-02-12
COSthr 9,Colorado Springs Area,0,59,68,0,5,38.83352000000008,-104.82180999999997,CO,2022-01-07
TKKthr 9,Chuuk Area,0,143,91,1,12,7.454000000000065,151.80500000000006,FM,2021-10-15
TKRthr 9,Koror Area,1,622,92,1,4,7.267820148000055,134.42167049600005,PW,2020-06-23
COUthr 9,Columbia Area,0,73,74,9,69,38.95252000000005,-92.33414999999997,MO,2021-12-24
CPRthr 9,Casper Area,0,95,66,0,69,42.85008000000005,-106.32779,WY,2021-12-02
TLHthr 9,Tallahassee Area,0,64,83,0,11,30.439770000000067,-84.28064999999998,FL,2022-01-02
TOLthr 9,Toledo Area,0,333,79,3,87,41.65381000000008,-83.53625999999997,OH,2021-04-08
CQTthr 9,Los Angeles Downtown Area,1,415,88,11,11,34.04834000000005,-118.25563999999997,CA,2021-01-16
CREthr 9,Myrtle Beach Area,0,71,77,2,71,33.69373000000007,-78.88231999999994,SC,2021-12-26
TOPthr 9,Topeka Area,0,73,74,7,87,39.04928000000007,-95.67117999999994,KS,2021-12-24
TPAthr 9,Tampa Area,0,32,85,1,37,27.946530000000052,-82.45926999999995,FL,2022-02-03